OBJECTID,Join_Count,TARGET_FID,url,building,PerSqFeet,lat,lon,NAME_ENG,NAME_CHT,FLAT_NO,DGFA,NDGFA,TOTAL,BD_STOREY,Year,Income2016,WalkDis,Lift,SDU_cat,Potential,Management,MajorEstat,Easting,Northing,dc_chi,dc_eng,SDU_IND,Shape_Leng
1,1,1,https://hk.centanet.com/findproperty/centadata-details/%E6%96%B0%E5%A1%AB%E5%9C%B0%E8%A1%97608%E8%99%9F_2-MMZSZHIAHT,新填地街608號,1395,22.32298,114.16695,NO SPECIFIC NAME,沒有名稱,0,820.8,120,940.8,10,61,17490,0.2,0,0,0,0,0,0,0,油尖旺區,Yau Tsim Mong, ,40.72176656
2,1,2,https://hk.centanet.com/findproperty/centadata-details/%E4%BF%9D%E5%85%B6%E5%88%A9%E5%A4%A7%E5%BB%88_2-EKYAPPEAPA,保其利大廈,1855,22.30848,114.18335,BULKELEY BUILDING,保其利大廈,0,2496,284,2780,10,64,20800,0.05,1,1,1,0,0,836931,818837,九龍城區,Kowloon City,**,78.24874738
3,1,3,https://hk.centanet.com/findproperty/centadata-details/%E5%BB%A3%E6%9D%B1%E9%81%93907%E8%99%9F_2-EEBEPPSEPW,廣東道907號,1927,22.31517,114.16784,NO SPECIFIC NAME,沒有名稱,0,2395,415.7,2810.7,7,67,16990,0.4,0,0,1,0,0,0,0,油尖旺區,Yau Tsim Mong, ,39.71029825
4,1,4,https://hk.centanet.com/findproperty/centadata-details/%E7%8D%85%E5%AD%90%E7%9F%B3%E9%81%9389%E8%99%9F_2-UFQJQRSRRV,獅子石道89號,2367,22.33044,114.18807,NO SPECIFIC NAME,沒有名稱,0,710.9,151.6,862.5,6,72,24230,0.4,0,0,1,0,0,0,0,九龍城區,Kowloon City, ,51.35159152
5,1,5,https://hk.centanet.com/findproperty/centadata-details/%E7%82%AE%E4%BB%97%E8%A1%9720%E8%99%9F_2-EKGYGPGVPS,炮仗街20號,2571,22.31809,114.18836,NO SPECIFIC NAME,沒有名稱,0,1208,151,1359,9,61,19040,0.05,0,1,0,0,0,837449,819900,九龍城區,Kowloon City,**,44.89949231
6,1,6,https://hk.centanet.com/findproperty/centadata-details/%E9%BB%91%E5%B8%83%E8%A1%9795%E8%99%9F_2-EEKYWPSYPD,黑布街95號,2611,22.31933,114.17216,NO SPECIFIC NAME,沒有名稱,0,1222,155,1377,9,65,18170,0.2,0,0,0,0,0,0,0,油尖旺區,Yau Tsim Mong, ,47.3796605
7,1,7,https://hk.centanet.com/findproperty/centadata-details/%E5%A4%A9%E8%88%88%E5%A4%A7%E5%BB%88_2-TTLLZHTAHM,天興大廈,2660,22.28785,114.13952,TIN HING BUILDING,天興大廈,0,5423.5,953,6376.5,13,58,22780,0.3,1,0,0,1,0,832421,816543,中西區,Central and Western,*,106.0395794
8,1,8,https://hk.centanet.com/findproperty/centadata-details/%E6%A1%82%E6%9E%97%E8%A1%9738E%E8%99%9F_2-MXLDTHZEHX,桂林街38E號,2760,22.3306,114.16166,NO SPECIFIC NAME,沒有名稱,0,1742.4,245.4,1987.8,8,67,14590,0.05,0,2,1,1,0,834701,821283,深水埗區,Sham Shui Po,***,32.98460162
9,1,9,https://hk.centanet.com/findproperty/centadata-details/%E5%90%B3%E6%9D%BE%E8%A1%9798%E8%99%9F_2-MMMDIHLSHN,吳松街98號,2936,22.30604,114.17045,NO SPECIFIC NAME,沒有名稱,0,1016.6,117,1133.6,10,61,18740,0.05,0,2,1,1,0,835606,818564,油尖旺區,Yau Tsim Mong,***,37.39211747
10,1,10,https://hk.centanet.com/findproperty/centadata-details/%E7%8E%89%E6%BB%BF%E6%A8%93_2-TDHLZHTAHM,玉滿樓,2977,22.27757,114.17496,JADE HOUSE,玉滿樓,0,3198,919.5,4117.5,16,57,19500,0.2,1,0,0,1,0,836069,815418,灣仔區,Wan Chai,*,67.51202428
11,1,11,https://hk.centanet.com/findproperty/centadata-details/%E5%8D%97%E6%98%8C%E9%96%A3_2-MXTTZHNVHX,南昌閣,3083,22.32945,114.16317,NAM CHEONG COURT,南昌閣,0,1818,139.1,1957.1,12,57,12460,0.05,1,0,1,1,0,834859,821155,深水埗區,Sham Shui Po,*,52.19528436
12,1,12,https://hk.centanet.com/findproperty/centadata-details/%E6%A1%82%E6%9E%97%E5%A4%A7%E5%BB%88_2-MXXHTHZAHX,桂林大廈,3704,22.32825,114.15958,KWEILIN MANSION,桂林大廈,0,1653.6,382.7,2036.3,8,48,16270,0.4,0,0,1,1,0,834480,821024,深水埗區,Sham Shui Po,*,76.23114839
13,2,13,https://hk.centanet.com/findproperty/centadata-details/%E5%8D%97%E7%81%A3%E5%A4%A7%E5%BB%88_2-UDFVQRVXRJ,南灣大廈,3838,22.2283,114.20043,SOUTH BAY TOWER,南灣大廈,95,17997.2,0,17997.2,29,40,149500,5,1,0,0,0,0,838694,809944,南區,Southern,*,168.5370836
14,1,14,https://hk.centanet.com/findproperty/centadata-details/%E5%A4%AA%E5%B9%B3%E9%82%A8_2-GEPPWPPAPD,太平邨,3846,22.49842,114.12629,PING CHI HOUSE,平治樓,83,21512.2,882.1,22394.3,27,35,21540,0.7,1,0,0,1,1,831062,839872,北區,North,*,188.3108371
15,1,15,https://hk.centanet.com/findproperty/centadata-details/%E7%BE%8E%E6%96%B0%E5%A4%A7%E5%BB%88_2-SSPPGPYYPS,美新大廈,3861,22.28359,114.12784,MAY SUN BUILDING,美新大廈,0,6710,610,7320,12,60,45490,0.3,1,1,0,1,0,831217,816082,中西區,Central and Western,**,141.6089463
16,1,16,https://hk.centanet.com/findproperty/centadata-details/%E5%B3%B0%E8%8F%AF%E9%82%A8_2-SGPPWPPJPB,峰華邨,3872,22.26111,114.23147,SAU FUNG HOUSE,秀峰樓,0,31355,368,31723,36,33,23990,0.8,1,0,0,0,1,841916,813570,東區,Eastern,*,185.0356166
17,2,17,https://hk.centanet.com/findproperty/centadata-details/%E8%81%AF%E5%BC%B7%E5%A4%A7%E5%BB%88_2-MXNDZHZJHX,聯強大廈,3922,22.27957,114.22993,TUNG KEUNG BUILDING,東強大廈,134,4564.3,442.5,5006.8,26,45,32100,0.05,1,0,0,1,0,841736,815633,東區,Eastern,*,78.54747047
18,2,18,https://hk.centanet.com/findproperty/centadata-details/%E5%AF%B6%E5%BA%B7%E5%A4%A7%E5%BB%88_2-XLIIIHZXHT,寶康大廈,3976,22.4474,114.16577,PO HONG BUILDING - PODIUM,寶康大廈 - 平台,40,1407.6,579.5,1987.1,3,33,14500,0.7,1,0,0,1,0,835127,834216,大埔區,Tai Po,*,55.45515021
19,1,19,https://hk.centanet.com/findproperty/centadata-details/%E7%94%B0%E6%99%AF%E9%82%A8_2-KEPPWPPVPA,田景邨,4075,22.40666,113.96505,LEUNG TIN INDOOR SPORTS CENTRE,良田體育館,0,0,18223.2,18223.2,4,0,25000,0.1,1,0,0,0,1,0,0,屯門區,Tuen Mun, ,410.8898659
20,1,20,https://hk.centanet.com/findproperty/centadata-details/%E5%9F%BA%E9%9A%86%E8%A1%97222%E8%99%9F_2-UDDJQRQSRD,基隆街222號,4103,22.32883,114.16226,NO SPECIFIC NAME,沒有名稱,0,1192.9,152.7,1345.6,10,62,17550,0.05,0,1,1,0,0,834761,821088,深水埗區,Sham Shui Po,**,47.28731962
21,1,21,https://hk.centanet.com/findproperty/centadata-details/%E9%87%8D%E6%85%B6%E5%A4%A7%E5%BB%88_2-ESDAGPYRPK,重慶大廈,4121,22.29638,114.1728,CHUNGKING MANSIONS - PODIUM,重慶大廈 - 平台,0,31557.6,26869.1,58426.7,3,63,21000,0.05,1,0,0,1,0,835817,817504,油尖旺區,Yau Tsim Mong,*,303.0245283
22,1,22,https://hk.centanet.com/findproperty/centadata-details/%E6%B1%9D%E5%B7%9E%E8%A1%97280-286A%E8%99%9F_2-EGSKWPWAPG,汝州街280-286A號,4261,22.33078,114.16062,NO SPECIFIC NAME,永泰樓,0,3938,520,4458,10,60,13750,0.05,0,0,1,0,0,834593,821304,深水埗區,Sham Shui Po,*,85.22431151
23,1,23,https://hk.centanet.com/findproperty/centadata-details/%E6%B8%85%E9%A2%A8%E8%A1%9719%E8%99%9F_2-SBWYPPYJPS,清風街19號,4311,22.28493,114.19242,NO SPECIFIC NAME,沒有名稱,0,1353.6,168.6,1522.2,10,59,23660,0.2,0,0,0,1,0,0,0,東區,Eastern, ,47.11644588
24,2,24,https://hk.centanet.com/findproperty/centadata-details/%E5%B9%B8%E7%A6%8F%E6%A8%93_2-BWBEPPKXPS,幸福樓,4630,22.44664,114.0212,HING FOOK BUILDING-PHASE 1 BLOCK A,幸福樓一期,0,4498.2,1813.2,6311.4,6,49,21750,0.4,0,1,0,0,0,820250,834140,元朗區,Yuen Long,**,45.60971672
25,2,25,https://hk.centanet.com/findproperty/centadata-details/%E7%A5%A5%E8%8F%AF%E9%82%A8_2-GESPWPPXPB,祥華邨,4642,22.49319,114.14113,CHEUNG WAH ESTATE - PODIUM,祥華邨 - 平台,473,19986,1635.1,21621.1,3,40,18500,0.5,1,0,0,1,1,832521,839344,北區,North,*,620.2660789
26,1,26,https://hk.centanet.com/findproperty/centadata-details/%E5%8F%8B%E6%88%90%E5%A4%A7%E6%A8%93_2-QUJOQRRYRD,友成大樓,4667,22.36871,114.13362,YAU SHING BUILDING,友成樓,0,1511.6,319.6,1831.2,6,57,17800,0.7,0,1,1,1,0,831815,825510,葵青區,Kwai Tsing,**,72.41714458
27,3,27,https://hk.centanet.com/findproperty/centadata-details/%E8%88%88%E7%94%B0%E9%82%A8_2-EWPPWPPEPD,興田邨,4734,22.31323,114.23948,CHOI TIN HOUSE,彩田樓,0,39030.9,333.9,39364.8,35,37,22490,1.5,1,0,0,1,1,842703,819366,觀塘區,Kwun Tong,*,257.269959
28,1,28,https://hk.centanet.com/findproperty/centadata-details/%E9%9D%92%E5%B1%B1%E9%81%93380-384%E8%99%9F_2-MXTTTHDAHZ,青山道380-384號,4757,22.33963,114.15505,NO SPECIFIC NAME,沒有名稱,0,1596.1,195.7,1791.8,9,66,20000,0.4,0,1,0,1,0,834020,822285,深水埗區,Sham Shui Po,**,62.93001357
29,2,29,https://hk.centanet.com/findproperty/centadata-details/%E7%BF%A0%E5%B1%8F(%E5%8C%97)%E9%82%A8_2-EWPPWPPEPK,翠屏(北)邨,4814,22.31655,114.2295,TSUI PING SHOPPING CIRCUIT,翠屏商場,0,0,5076,5076,3,0,15000,0.9,0,0,0,1,1,0,0,觀塘區,Kwun Tong, ,192.3289537
30,1,30,https://hk.centanet.com/findproperty/centadata-details/%E5%BE%B7%E7%94%B0%E9%82%A8_2-EWPPWPPJPD,德田邨,4866,22.31029,114.23795,TAK TIN PLAZA,德田廣場,0,0,8844.4,8844.4,4,33,17900,0.6,1,0,0,0,1,0,0,觀塘區,Kwun Tong, ,323.561743
31,1,31,https://hk.centanet.com/findproperty/centadata-details/%E8%8F%AF%E6%98%8E%E9%82%A8_2-GEPPWPPJPY,華明邨,5002,22.484,114.14112,WAH MING COMMERCIAL CENTRE,華明商業中心,0,0,8009.6,8009.6,3,34,21600,1.5,1,0,0,1,1,0,0,北區,North, ,323.4140774
32,1,32,https://hk.centanet.com/findproperty/centadata-details/%E5%A4%A9%E5%B9%B3%E9%82%A8_2-GEPPWPPYPK,天平邨,5034,22.5039,114.1328,TIN PING MANAGEMENT OFFICE,天平邨管業處,0,0,406,406,1,22,21000,0.8,0,0,0,0,1,0,0,北區,North, ,79.10634945
33,1,33,https://hk.centanet.com/findproperty/centadata-details/%E7%AB%B9%E5%9C%92%E5%8C%97%E9%82%A8_2-EYPPWPPRPS,竹園北邨,5034,22.34649,114.19402,CHEUNG YUEN HOUSE,橡園樓,0,45150,1254.4,46404.4,36,37,21590,1.5,1,0,0,1,1,838046,823043,黃大仙區,Wong Tai Sin,*,248.7787228
34,1,34,https://hk.centanet.com/findproperty/centadata-details/%E5%A4%AA%E5%AD%90%E9%81%93%E8%A5%BF81%E8%99%9F_2-UUCJFRDRRO,太子道西81號,5113,22.32324,114.16538,NO SPECIFIC NAME,沒有名稱,0,1658.9,172.7,1831.6,10,64,16200,0.4,0,1,1,0,0,835084,820468,油尖旺區,Yau Tsim Mong,**,63.23739591
35,2,35,https://hk.centanet.com/findproperty/centadata-details/%E5%BB%BA%E6%B3%B0%E6%A8%93_2-MLMZIHIEHZ,建泰樓,5132,22.31786,114.22615,KIN TAI HOUSE,建泰樓,0,3175.6,1218.7,4394.3,9,55,15370,0.8,0,1,0,1,0,841341,819872,觀塘區,Kwun Tong,**,139.9401815
36,1,36,https://hk.centanet.com/findproperty/centadata-details/%E8%8D%94%E6%9E%9D%E8%A7%92%E9%81%93271%E8%99%9F_2-UDVOQRSYRD,荔枝角道271號,5174,22.32775,114.16118,NO SPECIFIC NAME,沒有名稱,0,1207,170.4,1377.4,9,64,15310,0.3,0,0,1,1,0,0,0,深水埗區,Sham Shui Po, ,51.07736191
37,1,37,https://hk.centanet.com/findproperty/centadata-details/%E9%9D%92%E5%B1%B1%E5%85%AC%E8%B7%AF%E5%85%83%E6%9C%97%E6%AE%B588%E8%99%9F_2-VCDFURRARO,青山公路元朗段88號,5209,22.44426,114.0297,NO SPECIFIC NAME,沒有名稱,0,939.7,262,1201.7,8,57,24200,0.05,0,0,0,0,0,821118,833878,元朗區,Yuen Long,*,52.67644278
38,1,38,https://hk.centanet.com/findproperty/centadata-details/%E6%A6%AE%E8%BC%9D%E4%B8%AD%E5%BF%83_2-NISZZHXEHD,榮輝中心,5226,22.5015,114.14234,WING FAI CENTRE TOWER 1,榮輝中心第１座,1350,77160.6,0,77160.6,34,28,30000,1.5,1,0,0,0,1,832713,840210,北區,North,*,172.2569732
39,1,39,https://hk.centanet.com/findproperty/centadata-details/%E5%92%8C%E6%B3%B0%E8%A1%9719%E8%99%9F_2-VFRRFRFXRO,和泰街19號,5230,22.49918,114.14162,NO SPECIFIC NAME,沒有名稱,62,4333.8,2017.3,6351.1,6,55,15340,0.9,0,0,1,0,0,0,0,北區,North, ,45.29223688
40,1,40,https://hk.centanet.com/findproperty/centadata-details/%E5%BB%A3%E8%B1%90%E6%A8%93_2-UDDFFRSSRJ,廣豐樓,5272,22.32639,114.16107,KWONG FUNG HOUSE,廣豐樓,0,2243.4,156.3,2399.7,13,60,15630,0.5,0,1,1,1,0,834644,820816,深水埗區,Sham Shui Po,**,53.23942314
41,1,41,https://hk.centanet.com/findproperty/centadata-details/%E9%9D%92%E8%A1%A3%E9%82%A8_2-ABPPWPPRPP,青衣邨,5374,22.35398,114.10336,TSING YI ESTATE (MULTI-STOREY CARPARK),青衣邨 （多層停車場）,0,0,5356.7,5356.7,4,38,22650,3.5,0,0,0,1,1,0,0,葵青區,Kwai Tsing, ,151.5473226
42,1,42,https://hk.centanet.com/findproperty/centadata-details/%E5%85%83%E5%B7%9E%E8%A1%97130%E8%99%9F_2-MXDMIHSJHZ,元州街130號,5395,22.33416,114.16117,NO SPECIFIC NAME,沒有名稱,0,1011.8,180,1191.8,7,60,27600,0.4,0,0,0,0,0,0,0,深水埗區,Sham Shui Po, ,52.39359629
43,1,43,https://hk.centanet.com/findproperty/centadata-details/%E6%87%B7%E7%BE%A9%E8%A1%977%E8%99%9F_2-GWBDPPYXPS,懷義街7號,5435,22.44784,114.16551,NO SPECIFIC NAME,沒有名稱,0,997.7,519.2,1516.9,6,53,14270,0.7,0,0,1,0,0,0,0,大埔區,Tai Po, ,45.80974272
44,2,44,https://hk.centanet.com/findproperty/centadata-details/%E9%91%BD%E7%9F%B3%E6%A8%93_2-EGKWBPBAPG,鑽石樓,5445,22.33378,114.20917,TSUEN SHEK HOUSE,鑽石樓,0,7208,865,8073,8,54,15390,0.05,1,0,0,0,1,839595,821637,觀塘區,Kwun Tong,*,186.3139685
45,2,45,https://hk.centanet.com/findproperty/centadata-details/%E9%B4%BB%E9%81%8B%E6%A8%93_2-BWKKWPKYPS,鴻運樓,5450,22.36778,114.13488,HUNG WAN BUILDING,鴻運樓,0,1151.1,563.5,1714.6,6,54,20000,0.9,0,2,0,0,0,831934,825408,葵青區,Kwai Tsing,***,93.53542445
46,2,46,https://hk.centanet.com/findproperty/centadata-details/%E6%98%8C%E5%B9%B4%E5%A4%A7%E5%BB%88_2-QUQRURQXRD,昌年大廈,5523,22.36789,114.13354,CHEONG NIN BUILDING,昌年大廈,0,2541.3,3575,6116.3,10,52,17800,0.7,1,1,1,1,0,831808,825409,葵青區,Kwai Tsing,**,127.728592
47,1,47,https://hk.centanet.com/findproperty/centadata-details/%E7%AA%A9%E6%89%93%E8%80%81%E9%81%933B%E8%99%9F_2-UUCSFRCXRF,窩打老道3B號,5536,22.31302,114.16957,NO SPECIFIC NAME,沒有名稱,0,2990.1,337.1,3327.2,9,61,21840,0.05,0,2,1,1,0,835517,819333,油尖旺區,Yau Tsim Mong,***,99.84761715
48,1,48,https://hk.centanet.com/findproperty/centadata-details/%E6%98%8E%E5%BE%B7%E5%A4%A7%E5%BB%88_2-MXSSIHZXHX,明德大廈,5562,22.27855,114.17495,LAP TAK BUILDING,立德大廈,0,6531,1820.5,8351.5,14,56,18380,0.2,1,0,0,0,0,836072,815516,灣仔區,Wan Chai,*,109.1112351
49,1,49,https://hk.centanet.com/findproperty/centadata-details/%E5%AE%89%E7%9B%9B%E8%8B%91_2-BDSPGPAXPA,安盛苑,5612,22.50238,114.13504,ON SHING COURT,安盛苑,612,42249.7,205.2,42454.9,35,35,21000,1.5,1,0,0,1,0,831957,840311,北區,North,*,186.4992857
50,1,50,https://hk.centanet.com/findproperty/centadata-details/%E7%91%9E%E5%AF%A7%E6%A8%93_2-UCJOFRJARS,瑞寧樓,5618,22.31724,114.22448,SHUI NING HOUSE,瑞寧樓,0,13495.7,2559.8,16055.5,10,55,16490,1,1,2,0,1,0,841152,819811,觀塘區,Kwun Tong,***,212.8272318
51,1,51,https://hk.centanet.com/findproperty/centadata-details/%E5%A4%A7%E5%8D%97%E8%A1%97267%E8%99%9F_2-EGPWGPGRPG,大南街267號,5645,22.32832,114.16157,NO SPECIFIC NAME,沒有名稱,0,1264,150,1414,9,63,13500,0.2,0,0,1,0,0,0,0,深水埗區,Sham Shui Po, ,43.60253279
52,1,52,https://hk.centanet.com/findproperty/centadata-details/%E4%B8%8A%E6%B5%B7%E8%A1%97192%E8%99%9F_2-MMSLIHXAHN,上海街192號,5705,22.30766,114.16997,NO SPECIFIC NAME,沒有名稱,0,583.9,326.4,910.3,9,58,18740,0.4,0,1,1,0,0,835557,818744,油尖旺區,Yau Tsim Mong,**,35.83220631
53,1,53,https://hk.centanet.com/findproperty/centadata-details/%E5%85%89%E8%BC%9D%E6%A8%93_2-QUQQFRCXRJ,光輝樓,5707,22.36973,114.1392,KWONG FAI BUILDING - PODIUM,光輝樓 - 平台,0,1410.9,1826.4,3237.3,1,52,18800,1.5,0,1,1,1,0,832388,825625,葵青區,Kwai Tsing,**,103.6289964
54,1,54,https://hk.centanet.com/findproperty/centadata-details/%E9%BB%83%E5%A4%A7%E4%BB%99%E4%B8%8B%E9%82%A8(%E4%B8%80%E5%8D%80)_2-EYPPWPPJPA,黃大仙下邨(一區),5759,22.3383,114.19538,LUNG CHAK HOUSE,龍澤樓,0,18104.6,338.9,18443.5,28,33,15960,0.5,1,0,0,1,1,838172,822140,黃大仙區,Wong Tai Sin,*,182.736836
55,1,55,https://hk.centanet.com/findproperty/centadata-details/%E6%9D%B1%E9%A0%AD(%E4%BA%8C)%E9%82%A8_2-EYPPWPPEPA,東頭(二)邨,5762,22.33661,114.19334,TUNG TAU (II) ESTATE RCP,東頭（二）邨垃圾站,0,0,96,96,1,0,15750,0.7,0,0,0,0,1,0,0,黃大仙區,Wong Tai Sin, ,40.23963215
56,1,56,https://hk.centanet.com/findproperty/centadata-details/%E5%BB%BA%E6%96%B0%E5%A4%A7%E5%BB%88_2-EGYYPPKVPG,建新大廈,5770,22.33284,114.16326,KIN SUN BUILDING,建新大廈,0,3708.6,432,4140.6,12,61,17550,0.2,1,0,0,1,0,834867,821529,深水埗區,Sham Shui Po,*,77.67996263
57,1,57,https://hk.centanet.com/findproperty/centadata-details/%E9%95%B7%E5%AE%89%E9%82%A8_2-ABPPWPPJPS,長安邨,5774,22.36161,114.10041,CHEUNG ON ESTATE - ON HOI HOUSE,安海樓,816,42500,886.4,43386.4,35,37,23740,4.5,1,0,0,1,1,828386,824719,葵青區,Kwai Tsing,*,256.7394825
58,2,58,https://hk.centanet.com/findproperty/centadata-details/%E5%A4%A9%E7%A5%90%E8%8B%91_2-BSPPPPBJPP,天祐苑,5816,22.45081,114.00593,TIN YAU COURT YAU HONG HOUSE,天祐苑 祐康閣,0,132056,1987.4,134043.4,40,32,20180,0.2,1,0,0,0,1,818677,834605,元朗區,Yuen Long,*,336.9451207
59,1,59,https://hk.centanet.com/findproperty/centadata-details/%E5%9D%AA%E9%BA%97%E8%8B%91_2-CJRRQRSXRD,坪麗苑,5888,22.28631,114.03665,PENG LAI COURT,坪麗苑,1,14010,54.8,14064.8,6,47,16000,0,1,0,0,1,0,821836,816398,離島區,Islands,*,509.7602153
60,1,60,https://hk.centanet.com/findproperty/centadata-details/%E8%8F%AF%E7%99%BC%E5%A4%A7%E6%A8%93_2-MLHZTHIVHZ,華發大樓,5893,22.31661,114.22301,WAH FAT BUILDING,華發大樓,0,9466.9,1160,10626.9,10,61,16100,0.6,0,0,0,0,0,0,0,觀塘區,Kwun Tong, ,31.53744324
61,1,61,https://hk.centanet.com/findproperty/centadata-details/%E6%A6%AE%E8%8F%AF%E6%A8%93_2-EWPYPPPRPP,榮華樓,5902,22.2782,114.22895,WING WAH BUILDING,榮華樓,15,457.2,171.5,628.7,6,44,25000,0.05,0,0,0,1,0,841634,815477,東區,Eastern,*,52.51304042
62,1,62,https://hk.centanet.com/findproperty/centadata-details/%E9%B4%BB%E6%98%8C%E6%A8%93_2-EWYAWPGVPK,鴻昌樓,5916,22.44823,114.16581,HUNG CHEONG BUILDING,鴻昌樓,0,508,242.9,750.9,6,48,14270,0.8,0,0,1,1,0,0,0,大埔區,Tai Po, ,40.61490524
63,1,63,https://hk.centanet.com/findproperty/centadata-details/%E8%8F%AF%E8%B2%B4%E9%82%A8_2-SDPPWPPJPE,華貴邨,5926,22.25026,114.13808,HOME AFFAIRS DEPARTMENT WAH  KWAI COMMUNITY CENTRE,民政事務總署華貴社區中心,0,9.5,3900,3909.5,6,34,21800,3,1,0,0,0,1,0,0,南區,Southern, ,115.0531495
64,1,64,https://hk.centanet.com/findproperty/centadata-details/%E6%A6%AE%E8%A8%98%E5%A4%A7%E6%A8%93_2-MMDXTHNJHN,榮記大樓,5929,22.31684,114.17068,CHEONG KEE HOUSE,昌記大廈,0,2538.7,491.9,3030.6,12,63,19640,0.3,1,1,1,1,0,835626,819760,油尖旺區,Yau Tsim Mong,**,66.41013288
65,1,65,https://hk.centanet.com/findproperty/centadata-details/%E5%95%9F%E6%B3%B0%E8%8B%91_2-UFFVURSYRR,啟泰苑,5971,22.32807,114.21049,KAI PONG HOUSE,啓邦閣,0,38937.6,64.4,39002,20,42,31000,1,1,0,0,0,0,839724,821011,觀塘區,Kwun Tong,*,166.4922883
66,1,66,https://hk.centanet.com/findproperty/centadata-details/%E9%B5%AC%E7%A8%8B%E8%A1%979%E8%99%9F_2-EKDWWPGJPE,鵬程街9號,6008,22.32129,114.19219,NO SPECIFIC NAME,沒有名稱,0,1501.3,172.2,1673.5,8,65,16800,0.7,0,0,0,0,0,0,0,九龍城區,Kowloon City, ,29.77267903
67,1,67,https://hk.centanet.com/findproperty/centadata-details/%E5%88%A9%E6%9D%B1%E9%82%A8_2-SDPPWPPAPK,利東邨,6009,22.24167,114.15458,LEI TUNG CAR PARK NO.1,利東停車場1號,0,0,7418,7418,4,36,19900,0.2,1,0,0,1,1,0,0,南區,Southern, ,173.0622328
68,1,68,https://hk.centanet.com/findproperty/centadata-details/%E4%BB%81%E5%BE%B7%E5%A4%A7%E5%BB%88_2-TNMLZHHSHD,仁德大廈,6030,22.29158,114.19835,YEN DACK BUILDING,仁德大廈,0,14404,971,15375,20,60,17720,0.2,1,2,1,1,0,838505,816972,東區,Eastern,***,144.07096
69,1,69,https://hk.centanet.com/findproperty/centadata-details/%E6%81%86%E5%AE%89%E5%A4%A7%E6%A8%93_2-UUCRFRDYRU,恆安大樓,6036,22.3254,114.16857,HANG ON BUILDING,恒安大樓,0,6647,663,7310,12,62,20000,0.05,0,2,0,0,0,835411,820709,油尖旺區,Yau Tsim Mong,***,45.31660002
70,1,70,https://hk.centanet.com/findproperty/centadata-details/%E5%8D%97%E9%A0%AD%E8%A1%9711%E8%99%9F_2-EEEABPERPW,南頭街11號,6074,22.31814,114.16686,NO SPECIFIC NAME,沒有名稱,0,655,137.4,792.4,7,63,14000,0.2,0,1,0,1,0,835237,819906,油尖旺區,Yau Tsim Mong,**,37.71640954
71,2,71,https://hk.centanet.com/findproperty/centadata-details/%E7%BE%8E%E9%BA%97%E9%83%BD%E5%A4%A7%E5%BB%88_2-MTINIHSXHZ,美麗都大廈,6090,22.29734,114.17261,MIRADOR MANSION,美麗都大廈,0,37625,18480,56105,18,65,19500,0.05,1,2,0,1,0,835826,817623,油尖旺區,Yau Tsim Mong,***,238.7519527
72,1,72,https://hk.centanet.com/findproperty/centadata-details/%E6%AC%A3%E7%9B%9B%E8%8B%91_2-VJROQRFVRQ,欣盛苑,6118,22.48656,114.14027,YAN SAU HOUSE,欣秀閣,350,22328.1,0,22328.1,36,31,29540,0.7,1,0,0,0,1,832503,838558,北區,North,*,187.2832047
73,1,73,https://hk.centanet.com/findproperty/centadata-details/%E5%A4%A7%E5%8D%97%E8%A1%9770%E8%99%9F_2-EEPSWPYXPS,大南街70號,6129,22.32509,114.16623,NO SPECIFIC NAME,沒有名稱,0,1085,286,1371,9,61,12790,0.2,0,0,0,0,0,0,0,油尖旺區,Yau Tsim Mong, ,44.75224674
74,1,74,https://hk.centanet.com/findproperty/centadata-details/%E9%A1%AF%E6%98%8E%E8%8B%91_2-DJURUROYRQ,顯明苑,6148,22.31569,114.26864,HIN MING COURT,顯明苑,0,47831.7,1258.7,49090.4,39,28,25700,0.6,1,0,0,1,1,845734,819626,西貢區,Sai Kung,*,244.3099191
75,2,75,https://hk.centanet.com/findproperty/centadata-details/%E5%BA%B7%E5%88%A9%E4%B8%AD%E5%BF%83_2-NXLIIHSHHT,康利中心,6158,22.39763,113.97518,HONELEY COURT,康利中心,0,5299,2158.2,7457.2,22,39,18080,0.2,1,0,0,1,0,815500,828721,屯門區,Tuen Mun,*,113.6773712
76,3,76,https://hk.centanet.com/findproperty/centadata-details/%E6%A8%82%E7%BF%A0%E8%87%BA_2-SGYGWPWYPA,樂翠臺,6166,22.27285,114.18616,VILLA ROCHA BLOCK A,樂翠台A座,248,28657.1,0,28657.1,36,36,101200,1,1,0,0,1,0,837223,814890,灣仔區,Wan Chai,*,136.1808479
77,1,77,https://hk.centanet.com/findproperty/centadata-details/%E8%AD%9A%E5%85%AC%E9%81%9387%E8%99%9F_2-EKWPBPYYPS,譚公道87號,6167,22.32313,114.18855,NO SPECIFIC NAME,沒有名稱,0,1096,137,1233,8,66,17460,0.6,0,0,1,0,0,0,0,九龍城區,Kowloon City, ,44.80125512
78,1,78,https://hk.centanet.com/findproperty/centadata-details/%E7%93%8A%E5%B1%B1%E8%8B%91_2-UFOQQRUERF,瓊山苑,6174,22.34209,114.2106,KING FUNG HOUSE,瓊峯閣 Ａ座,0,14407.8,0,14407.8,34,42,31050,1.5,1,0,0,1,1,839742,822557,黃大仙區,Wong Tai Sin,*,125.243963
79,1,79,https://hk.centanet.com/findproperty/centadata-details/%E5%AF%B6%E4%BB%81%E6%A8%93_2-DCUFFRSXRO,寶仁樓,6183,22.44829,114.16614,PO YAN BUILDING,寶仁樓,0,808,554.9,1362.9,6,55,14270,0.8,0,1,1,0,0,835165,834321,大埔區,Tai Po,**,45.99279026
80,1,80,https://hk.centanet.com/findproperty/centadata-details/%E9%B4%BB%E7%A6%8F%E8%8B%91_2-OJVQURFXRQ,鴻福苑,6190,22.25094,114.15035,HUNG CHAK HOUSE,鴻澤閣,0,20873.8,84.7,20958.5,36,27,23360,2.5,1,0,0,0,0,833534,812463,南區,Southern,*,179.3721669
81,1,81,https://hk.centanet.com/findproperty/centadata-details/%E5%AF%8C%E5%AF%A7%E8%8A%B1%E5%9C%92_2-XITNZHZXHD,富寧花園,6216,22.3199,114.26754,FU NING GARDEN BLOCK 1,富寧花園第1座,2400,136883,1941.6,138824.6,35,34,27650,0.8,1,0,0,0,1,845618,820103,西貢區,Sai Kung,*,230.7582528
82,1,82,https://hk.centanet.com/findproperty/centadata-details/%E6%B0%B8%E8%81%AF%E5%A4%A7%E5%BB%88_2-UDVVQRCYRD,永聯大廈,6261,22.33195,114.16148,WING LUEN MANSION,永聯大廈,0,4395.7,418.3,4814,13,60,16410,0.05,1,2,0,1,0,834685,821437,深水埗區,Sham Shui Po,***,96.92506443
83,1,83,https://hk.centanet.com/findproperty/centadata-details/%E9%BA%97%E6%98%9F%E5%A4%A7%E5%BB%88_2-UUCFURSRRV,麗星大廈,6263,22.312,114.17059,LAI SHING BUILDING,麗星大廈,0,6126.7,941.3,7068,19,61,15000,0.05,1,1,1,0,0,835623,819226,油尖旺區,Yau Tsim Mong,**,78.30522685
84,1,84,https://hk.centanet.com/findproperty/centadata-details/%E6%B1%9D%E5%B7%9E%E8%A1%97249%E8%99%9F_2-EGWSBPWHPG,汝州街249號,6282,22.3297,114.16149,NO SPECIFIC NAME,沒有名稱,0,1042.3,150.8,1193.1,9,56,16000,0.05,0,0,1,1,0,0,0,深水埗區,Sham Shui Po, ,45.85918795
85,1,85,https://hk.centanet.com/findproperty/centadata-details/%E5%AE%8F%E7%A6%8F%E8%8B%91_2-XLTDTHXAHT,宏福苑,6313,22.44723,114.17494,WANG YAN HOUSE,宏仁閣,248,12698,69,12767,32,41,25000,0.8,1,0,0,0,1,836069,834204,大埔區,Tai Po,*,129.0347028
86,2,86,https://hk.centanet.com/findproperty/centadata-details/%E9%B3%B3%E8%8F%AF%E6%A8%93_2-EYGBGPYAPS,鳳華樓,6345,22.34564,114.19831,FUNG WAH HOUSE,鳳華樓,0,2029.9,360.7,2390.6,9,55,22330,0.7,0,0,1,1,0,838478,822951,黃大仙區,Wong Tai Sin,*,84.0265701
87,1,87,https://hk.centanet.com/findproperty/centadata-details/%E9%9D%92%E5%B1%B1%E9%81%93318%E8%99%9F_2-UDVOFRUHRS,青山道318號,6357,22.33847,114.1566,NO SPECIFIC NAME,沒有名稱,0,289.4,150.6,440,6,52,19000,0.4,0,0,1,0,0,834174,822150,深水埗區,Sham Shui Po,*,52.06295347
88,1,88,https://hk.centanet.com/findproperty/centadata-details/%E5%85%83%E5%B7%9E%E8%A1%9762%E8%99%9F_2-UDVFQRFHRD,元州街62號,6379,22.33283,114.16288,NO SPECIFIC NAME,沒有名稱,0,1590,510,2100,10,60,17550,0.2,0,1,0,1,0,834826,821530,深水埗區,Sham Shui Po,**,53.19187396
89,1,89,https://hk.centanet.com/findproperty/centadata-details/%E9%A0%86%E6%AC%A3%E8%8A%B1%E5%9C%92_2-VJORURFHRQ,順欣花園,6408,22.50173,114.13226,SUNNINGDALE GARDEN - PODIUM,順欣花園 - 平台,830,51180.8,958,52138.8,3,32,25000,0.6,1,0,0,1,0,831632,840244,北區,North,*,604.9409229
90,1,90,https://hk.centanet.com/findproperty/centadata-details/%E9%9D%92%E5%B1%B1%E9%81%93323%E8%99%9F_2-UDCDUROXRS,青山道323號,6410,22.33804,114.15656,NO SPECIFIC NAME,沒有名稱,0,1710,365.7,2075.7,9,65,19000,0.3,0,1,1,0,0,834172,822102,深水埗區,Sham Shui Po,**,52.50837932
91,2,91,https://hk.centanet.com/findproperty/centadata-details/%E5%BA%B7%E5%9F%8E%E5%A4%A7%E6%A8%93_2-VCRRURQXRO,康城大樓,6431,22.44328,114.02484,HONG SHING BUILDING,康城大樓,0,13975.9,3314.3,17290.2,25,51,16500,0.1,1,0,1,0,0,820619,833771,元朗區,Yuen Long,*,105.4124897
92,1,92,https://hk.centanet.com/findproperty/centadata-details/%E9%86%AB%E5%B1%80%E8%A1%97169B%E8%99%9F_2-EGGABPYYPG,醫局街169B號,6439,22.32787,114.16014,NO SPECIFIC NAME,沒有名稱,0,531.6,92,623.6,7,67,16270,0.3,0,2,1,0,0,834543,820982,深水埗區,Sham Shui Po,***,26.82092162
93,1,93,https://hk.centanet.com/findproperty/centadata-details/%E6%96%B0%E7%A5%A5%E8%A1%9715%E8%99%9F_2-NILTIHDYHT,新祥街15號,6443,22.50386,114.12955,NO SPECIFIC NAME,沒有名稱,39,1888.8,1690.8,3579.6,3,59,19120,0.3,0,0,1,0,0,831397,840472,北區,North,*,49.77123629
94,2,94,https://hk.centanet.com/findproperty/centadata-details/%E5%AF%B6%E9%BA%97%E8%8B%91_2-MXLHTHXVHZ,寶麗苑,6449,22.33813,114.15814,PO HONG HOUSE,寶康閣,0,22546.2,21360,43906.2,12,37,23020,0.3,1,0,0,0,0,834339,822118,深水埗區,Sham Shui Po,*,252.8924626
95,1,95,https://hk.centanet.com/findproperty/centadata-details/%E6%B3%B0%E8%88%88%E5%A4%A7%E5%BB%88_2-EWBWBPKYPK,泰興大廈,6452,22.39666,113.97491,TAI HING BUILDING,泰興大樓,12,396.3,493.3,889.6,6,45,18080,0.1,0,0,0,1,0,815469,828614,屯門區,Tuen Mun,*,55.0214504
96,1,96,https://hk.centanet.com/findproperty/centadata-details/%E5%B1%B1%E9%BA%97%E8%8B%91_2-GAPPWPPYPK,山麗苑,6458,22.50331,114.16047,HANG SHAN HOUSE,杏山閣,3222,113200,1315.4,114515.4,37,3,18500,3.5,0,0,0,0,0,834570,840402,北區,North,*,279.2064753
97,1,97,https://hk.centanet.com/findproperty/centadata-details/%E6%B5%B7%E5%A3%A9%E8%A1%9720A%E8%99%9F_2-QUJRFRQSRS,海壩街20A號,6491,22.37372,114.11198,TAK YAN BUILDING STAGE 12,德仁樓第十二期,0,255.8,118.2,374,6,52,17550,0.7,0,1,1,0,0,829586,826066,荃灣區,Tsuen Wan,**,44.11879003
98,1,98,https://hk.centanet.com/findproperty/centadata-details/%E5%A8%81%E4%BF%A1%E6%A8%93_2-MSMXZHXSHZ,威信樓,6494,22.3358,114.19638,WEI SHUN MANSION,威信樓,0,1613.9,1159,2772.9,6,60,14540,0.7,0,0,0,1,0,838277,821863,黃大仙區,Wong Tai Sin,*,82.66710875
99,1,99,https://hk.centanet.com/findproperty/centadata-details/%E6%B0%B8%E8%80%80%E8%A1%975%E8%99%9F_2-EKPWGPWRPS,永耀街5號,6494,22.31931,114.18789,NO SPECIFIC NAME,沒有名稱,0,1282,161,1443,10,66,20000,0.2,0,0,0,0,0,837403,820034,九龍城區,Kowloon City,*,26.802596
100,1,100,https://hk.centanet.com/findproperty/centadata-details/%E9%87%91%E5%92%8C%E5%A4%A7%E5%BB%88_2-EKDBPPKJPE,金和大廈,6498,22.31704,114.18859,KAM WOO MANSION,金和大廈,0,4007.7,1257.8,5265.5,13,59,15750,0.05,1,1,0,1,0,837469,819782,九龍城區,Kowloon City,**,96.93872026
101,1,101,https://hk.centanet.com/findproperty/centadata-details/%E5%A4%A9%E5%AF%8C%E8%8B%91_2-NTHHIHZEHH,天富苑,6502,22.46307,113.9978,YUEN FU HOUSE,元富閣,0,32213.3,0,32213.3,41,24,22000,0.1,1,0,0,0,1,817837,835964,元朗區,Yuen Long,*,190.4202502
102,1,102,https://hk.centanet.com/findproperty/centadata-details/%E6%A8%82%E5%AF%B6%E5%A4%A7%E6%A8%93_2-OODJFRQXRU,樂寶大樓,6511,22.28493,114.13604,LOK PO HOUSE,樂寶大樓,0,808.3,120.3,928.6,6,66,24230,0.05,0,0,0,1,0,832060,816229,中西區,Central and Western,*,50.15631025
103,2,103,https://hk.centanet.com/findproperty/centadata-details/%E7%A6%8F%E8%88%88%E6%A8%93_2-EYADPPSRPB,福興樓,6512,22.31756,114.22495,FOOK HING COURT,福興樓,0,1862.2,866.3,2728.5,6,58,15370,1,0,1,0,0,0,841222,819841,觀塘區,Kwun Tong,**,48.05581787
104,1,104,https://hk.centanet.com/findproperty/centadata-details/%E8%97%9D%E8%88%88%E5%A4%A7%E5%BB%88_2-UUVSQRCXRJ,藝興大廈,6558,22.31777,114.17308,NGAI HING MANSION,藝興大廈,0,17074.9,1403.3,18478.2,17,60,26000,0.5,1,2,0,1,0,835877,819861,油尖旺區,Yau Tsim Mong,***,186.6935076
105,1,105,https://hk.centanet.com/findproperty/centadata-details/%E5%88%A9%E6%B0%91%E5%A4%A7%E5%BB%88_2-EEDEPPWXPE,利民大廈,6559,22.32008,114.17059,LEE MAN BUILDING,利民大廈,0,4325,427.6,4752.6,12,62,14850,0.05,0,2,1,1,0,835617,820119,油尖旺區,Yau Tsim Mong,***,51.23834804
106,1,106,https://hk.centanet.com/findproperty/centadata-details/%E9%87%91%E5%AF%B6%E5%A4%A7%E5%BB%88_2-VCJRQRQXRO,金寶大廈,6564,22.2814,114.22274,GOLDEN MANSION - PODIUM,金寶大廈 - 平台,84,3502.8,939.4,4442.2,1,46,22000,0.05,1,0,0,1,0,840996,815839,東區,Eastern,*,91.34719086
107,1,107,https://hk.centanet.com/findproperty/centadata-details/%E5%AF%8C%E8%B2%B4%E5%A4%A7%E5%BB%88_2-UUSOQRUSRO,富貴大廈,6572,22.31931,114.16166,PEONY HOUSE EAST BLOCK,富貴大廈東座,0,7710,415.9,8125.9,14,65,24000,0.05,1,2,0,1,0,834701,820041,油尖旺區,Yau Tsim Mong,***,109.1647346
108,1,108,https://hk.centanet.com/findproperty/centadata-details/%E5%90%B3%E6%9D%BE%E8%A1%97105%E8%99%9F_2-EEEKBPWAPB,吳松街105號,6572,22.30595,114.17016,NO SPECIFIC NAME,沒有名稱,0,290,81,371,7,62,16640,0.1,0,1,1,1,0,835576,818554,油尖旺區,Yau Tsim Mong,**,31.21733029
109,1,109,https://hk.centanet.com/findproperty/centadata-details/%E9%8C%A6%E9%BE%8D%E8%8B%91_2-XSDTIHXXHN,錦龍苑,6595,22.42603,114.24066,LUNG YUET HOUSE,龍悅閣,350,21308,234,21542,36,31,23000,0.8,1,0,0,1,1,842835,831854,沙田區,Sha Tin,*,191.8934416
110,1,110,https://hk.centanet.com/findproperty/centadata-details/%E5%AF%8C%E6%80%A1%E8%8A%B1%E5%9C%92_2-ODVFQRVSRV,富怡花園,6610,22.44649,113.99341,FU YEE GARDEN,富怡花園,0,192,0,192,3,0,25000,1.5,0,0,0,0,0,817383,834129,元朗區,Yuen Long,*,20.43784609
111,2,111,https://hk.centanet.com/findproperty/centadata-details/%E9%A0%86%E8%88%88%E5%A4%A7%E6%A8%93_2-NLXXZHMEHT,順興大樓,6644,22.44167,114.03028,SHUN HING BUILDING,順興大樓,25,761.5,507.7,1269.2,7,44,25710,0.4,0,0,0,0,0,821177,833592,元朗區,Yuen Long,*,77.89198514
112,1,112,https://hk.centanet.com/findproperty/centadata-details/%E8%8B%B1%E6%98%8E%E8%8B%91_2-DJORURSARQ,英明苑,6652,22.32527,114.25717,MING YUEN HOUSE,明遠閣,0,44914,660.5,45574.5,35,35,22000,0.3,1,0,0,1,1,844543,820692,西貢區,Sai Kung,*,182.0129014
113,1,113,https://hk.centanet.com/findproperty/centadata-details/%E7%A5%A5%E8%88%88%E5%A4%A7%E5%BB%88_2-UUCFQRSXRR,祥興大廈,6654,22.27819,114.17663,CHONG HING BUILDING,祥興大廈,0,2780,354.7,3134.7,15,54,27950,0.4,1,0,0,1,0,836246,815482,灣仔區,Wan Chai,*,60.91760611
114,1,114,https://hk.centanet.com/findproperty/centadata-details/%E5%9D%A4%E6%88%90%E6%A8%93_2-AEKKGPYJPK,坤成樓,6667,22.36987,114.12025,KWAN SHING BUILDING,坤成樓,0,3788.4,866.5,4654.9,6,52,15000,0.4,0,0,0,0,0,0,0,荃灣區,Tsuen Wan, ,35.53317262
115,1,115,https://hk.centanet.com/findproperty/centadata-details/%E9%BE%8D%E9%A3%9B%E5%A4%A7%E5%BB%88_2-MMIDTHSYHI,龍飛大廈,6673,22.31929,114.17043,LUNG FAI HOUSE,龍飛大樓,0,2099.2,397.6,2496.8,12,60,16500,0.05,1,0,1,1,0,835602,820038,油尖旺區,Yau Tsim Mong,*,55.73473274
116,1,116,https://hk.centanet.com/findproperty/centadata-details/%E5%BA%B7%E7%9B%9B%E8%8A%B1%E5%9C%92_2-GDYWPPBHPB,康盛花園,6689,22.31971,114.25279,HONG SING GARDEN COMMERCIAL CENTRE,康盛花園商場,1850,104483,4468.1,108951.1,3,36,33800,2,0,0,0,0,1,0,0,西貢區,Sai Kung, ,309.098133
117,1,117,https://hk.centanet.com/findproperty/centadata-details/%E7%A6%8F%E8%8F%AF%E8%A1%97582%E8%99%9F_2-EGGYGPKAPS,福華街582號,6699,22.33944,114.15234,NO SPECIFIC NAME,沒有名稱,0,24281,2763,27044,9,66,17100,0.4,0,0,1,0,0,0,0,深水埗區,Sham Shui Po, ,31.48808154
118,1,118,https://hk.centanet.com/findproperty/centadata-details/%E9%8C%A6%E5%B1%8F%E6%A8%93_2-OVRVURSARQ,錦屏樓,6705,22.28942,114.2005,KAM PING MANSION BLOCK B,錦屏樓B座,0,24710.3,2393.6,27103.9,15,59,13810,0.1,1,0,0,1,0,0,0,東區,Eastern, ,85.69047568
119,1,119,https://hk.centanet.com/findproperty/centadata-details/%E8%89%AF%E6%9D%90%E5%A4%A7%E6%A8%93_2-VCFJURVERO,良材大樓,6711,22.44718,114.02249,LEUNG CHOY BUILDING - PODIUM,良材大樓 - 平台,0,3229.2,1485.8,4715,1,47,18000,0.2,0,0,0,0,0,820351,834198,元朗區,Yuen Long,*,164.6395182
120,1,120,https://hk.centanet.com/findproperty/centadata-details/%E5%A4%A9%E7%9B%9B%E8%8B%91_2-BSPPBPSEPP,天盛苑,6731,22.44901,114.00275,TIN SHING SHOPPING CENTRE,天盛商場,0,0,8523.7,8523.7,8,25,28500,0.2,1,0,0,0,1,0,0,元朗區,Yuen Long, ,513.7084758
121,2,121,https://hk.centanet.com/findproperty/centadata-details/%E7%BF%A0%E7%AB%B9%E8%8A%B1%E5%9C%92_2-UFFSQRRHRU,翠竹花園,6734,22.34563,114.18927,TSUI CHUK PLAZA,翠竹商場,0,0,4215.3,4215.3,6,35,28000,1.5,1,0,0,1,1,0,0,黃大仙區,Wong Tai Sin, ,145.5602132
122,2,122,https://hk.centanet.com/findproperty/centadata-details/%E6%9B%89%E7%BF%A0%E8%8B%91_2-TXMTTHDXHN,曉翠苑,6744,22.26297,114.24751,Hiu Tsui Court Carpark,曉翠苑停車場,0,0,4488,4488,5,35,24000,2,0,0,0,1,1,0,0,東區,Eastern, ,130.880371
123,1,123,https://hk.centanet.com/findproperty/centadata-details/%E6%B5%A9%E6%98%8E%E8%8B%91_2-XIIHZHZXHD,浩明苑,6772,22.32168,114.2595,HO MING COURT,浩明苑,0,55219.4,1624.1,56843.5,35,34,19580,0.2,1,0,0,0,1,844789,820303,西貢區,Sai Kung,*,242.2694382
124,1,124,https://hk.centanet.com/findproperty/centadata-details/%E6%82%85%E6%B9%96%E5%B1%B1%E8%8E%8A_2-NXZLIHSYHT,悅湖山莊,6782,22.37418,113.96941,YUET WU VILLA CARPARK,悅湖山莊停車場,0,0,12238.4,12238.4,5,31,31650,0.3,1,0,0,0,1,0,0,屯門區,Tuen Mun, ,218.2707875
125,1,125,https://hk.centanet.com/findproperty/centadata-details/%E5%8D%97%E6%B3%B0%E5%A4%A7%E6%A8%93_2-UCJOFRVRRS,南泰大樓,6800,22.31551,114.22534,NAM TAI MANSION,南泰大樓,0,2212,632.9,2844.9,8,60,15300,0.5,0,1,0,1,0,841266,819616,觀塘區,Kwun Tong,**,113.4074875
126,1,126,https://hk.centanet.com/findproperty/centadata-details/%E5%AF%B6%E9%9B%85%E8%8B%91_2-GWPPPPDRPB,寶雅苑,6802,22.45063,114.15927,ASSEMBLY OF GOD HEBRON SECONDARY SCHOOL,神召會康樂中學,0,0,13000,13000,8,33,29550,2,1,0,0,0,0,0,0,大埔區,Tai Po, ,252.2967514
127,1,127,https://hk.centanet.com/findproperty/centadata-details/%E6%B0%B8%E8%80%80%E8%A1%9710%E8%99%9F_2-USFSFRCVRO,永耀街10號,6812,22.31911,114.18803,NO SPECIFIC NAME,沒有名稱,0,1425.7,172,1597.7,10,66,20000,0.2,0,0,0,0,0,837417,820011,九龍城區,Kowloon City,*,26.97448718
128,1,128,https://hk.centanet.com/findproperty/centadata-details/%E4%B8%AD%E5%8E%9F%E6%A8%93_2-EEPYGPKXPS,中原樓,6820,22.32285,114.16083,CHUNG YUEN BUILDING,中原樓,0,14673.4,1071,15744.4,15,58,17630,0.6,1,1,0,1,0,834616,820425,油尖旺區,Yau Tsim Mong,**,269.0524937
129,1,129,https://hk.centanet.com/findproperty/centadata-details/%E7%A6%8F%E6%A6%AE%E8%A1%9721-23%E8%99%9F_2-UDRFFRUARJ,福榮街21-23號,6834,22.32916,114.16606,NO SPECIFIC NAME,沒有名稱,0,1713.8,197.4,1911.2,9,62,17000,0.4,0,1,0,0,0,835159,821129,深水埗區,Sham Shui Po,**,67.25470829
130,1,130,https://hk.centanet.com/findproperty/centadata-details/%E5%85%86%E9%82%A6%E8%8B%91_2-NXMNZHDYHM,兆邦苑,6835,22.40707,113.96656,SIU PONG COURT,兆邦苑,612,42668,871.9,43539.9,35,33,25000,0.05,1,0,0,1,0,814615,829782,屯門區,Tuen Mun,*,183.2466718
131,1,131,https://hk.centanet.com/findproperty/centadata-details/%E8%88%88%E7%A6%8F%E6%A8%93_2-UFRRURVYRO,興福樓,6881,22.36636,114.13206,KWAI HING ESTATE - HING FUK HOUSE,葵興邨 興福樓,407,18125,449.2,18574.2,27,32,22320,0.4,1,0,0,1,1,831655,825240,葵青區,Kwai Tsing,*,189.2335613
132,1,132,https://hk.centanet.com/findproperty/centadata-details/%E5%85%83%E6%9C%97%E5%A4%A7%E5%BB%88_2-VCSOQRRRRO,元朗大廈,6890,22.44428,114.02619,YUEN LONG MANSION,元朗大廈,0,5048.7,1115.3,6164,16,58,13050,0.05,1,0,0,0,0,0,0,元朗區,Yuen Long, ,54.27092342
133,1,133,https://hk.centanet.com/findproperty/centadata-details/%E8%81%AF%E5%AE%89%E8%A1%9737%E8%99%9F_2-UCVJQRQARS,聯安街37號,6897,22.31594,114.22119,NO SPECIFIC NAME,沒有名稱,0,396.1,115.9,512,6,52,15900,0.3,0,0,0,1,0,840834,819661,觀塘區,Kwun Tong,*,49.17406497
134,1,134,https://hk.centanet.com/findproperty/centadata-details/%E6%9D%B1%E9%A7%BF%E8%8B%91_2-ODUFFRCARO,東駿苑,6899,22.27733,114.22226,KAM CHUN HOUSE,金駿閣,0,76000,352.5,76352.5,39,30,19900,0.8,1,0,0,0,1,840946,815388,東區,Eastern,*,244.3629246
135,1,135,https://hk.centanet.com/findproperty/centadata-details/%E5%A4%A7%E5%8D%97%E8%A1%9736%E8%99%9F_2-UUDSFRFARO,大南街36號,6908,22.32451,114.16698,NO SPECIFIC NAME,沒有名稱,0,215.5,155.9,371.4,6,51,15500,0.05,0,1,0,1,0,835247,820607,油尖旺區,Yau Tsim Mong,**,37.97655938
136,1,136,https://hk.centanet.com/findproperty/centadata-details/%E5%BB%9F%E8%A1%97207%E8%99%9F_2-MMSIIHIAHN,廟街207號,6914,22.30603,114.16972,NO SPECIFIC NAME,沒有名稱,0,763,108,871,8,60,16640,0.2,0,1,1,1,0,835532,818561,油尖旺區,Yau Tsim Mong,**,44.22368429
137,1,137,https://hk.centanet.com/findproperty/centadata-details/%E7%BE%8E%E6%A8%82%E8%8A%B1%E5%9C%92_2-BGPEBPAEPS,美樂花園,6921,22.37528,113.96073,MELODY GARDEN MARKET,美樂花園街市,2240,156538,165.6,156703.6,1,41,32000,0.05,0,0,0,0,1,0,0,屯門區,Tuen Mun, ,177.0067858
138,1,138,https://hk.centanet.com/findproperty/centadata-details/%E5%85%86%E9%9A%86%E8%8B%91_2-NXTNZHDXHM,兆隆苑,6924,22.408,113.96441,SIU LUNG COURT,兆隆苑,612,41498.4,466.6,41965,35,33,20000,0.1,1,0,0,1,0,814407,829854,屯門區,Tuen Mun,*,182.542648
139,2,139,https://hk.centanet.com/findproperty/centadata-details/%E5%AE%89%E5%9F%BA%E8%8B%91_2-EWYPPPPVPK,安基苑,6957,22.32252,114.21745,ON KAY COURT ON KAY COURT COMMERCIAL CENTRE,安基苑安基苑商塲,0,0,8238.9,8238.9,3,42,29000,0.7,0,0,0,0,0,0,0,觀塘區,Kwun Tong, ,56.5872673
140,1,140,https://hk.centanet.com/findproperty/centadata-details/%E4%B8%AD%E5%8D%97%E5%A4%A7%E5%BB%88_2-USCOQRVRRO,中南大廈,6958,22.28869,114.19358,CHUNG NAM MANSION,中南大廈,0,4942.3,585.5,5527.8,18,59,37500,0.05,1,0,0,1,0,837985,816640,東區,Eastern,*,75.82210251
141,1,141,https://hk.centanet.com/findproperty/centadata-details/%E9%8C%A6%E8%8B%B1%E8%8B%91_2-XSDHIHXVHN,錦英苑,6961,22.42212,114.23559,CUHKFAA THOMAS CHEUNG KINDERGARTEN,香港中文大學校友會張煊昌幼稚園,0,0,6577,6577,4,0,27900,1.5,0,0,0,1,1,0,0,沙田區,Sha Tin, ,240.2856565
142,1,142,https://hk.centanet.com/findproperty/centadata-details/%E7%BD%AE%E6%A8%82%E8%8A%B1%E5%9C%92_2-BGEKGPSYPS,置樂花園,6972,22.38773,113.97979,LOK MAN YUEN,樂民苑,1002,54395,7304.4,61699.4,16,44,17490,0.9,1,0,0,1,0,815973,827620,屯門區,Tuen Mun,*,137.8200914
143,1,143,https://hk.centanet.com/findproperty/centadata-details/%E9%9B%99%E5%96%9C%E5%A4%A7%E5%BB%88_2-EGKGGPSAPD,雙喜大廈,6980,22.33741,114.19752,SHEUNG HEI FACTORY BUILDING,雙喜工業大廈,0,0,3724.8,3724.8,9,59,14540,0.5,1,0,0,1,0,0,0,黃大仙區,Wong Tai Sin, ,83.05579643
144,1,144,https://hk.centanet.com/findproperty/centadata-details/%E7%B3%96%E6%B0%B4%E9%81%9310%E8%99%9F_2-SBKYWPYOPA,糖水道10號,6986,22.2915,114.19904,NO SPECIFIC NAME,沒有名稱,0,524,227,751,6,47,21070,0.05,0,0,0,0,0,838544,816954,東區,Eastern,*,56.22332357
145,1,145,https://hk.centanet.com/findproperty/centadata-details/%E9%87%91%E6%A9%8B%E8%8F%AF%E5%BB%88_2-UCJRFROORS,金橋華廈,6986,22.31484,114.22337,CAMBRIDGE BUILDING,金僑華廈,0,16345.8,1131.3,17477.1,22,58,15300,0.4,1,2,0,1,0,841058,819550,觀塘區,Kwun Tong,***,164.642141
146,1,146,https://hk.centanet.com/findproperty/centadata-details/%E5%BB%BA%E5%AE%89%E6%A8%93_2-NLSLIHZYTT,建安樓,6991,22.27337,114.17391,KIN ON HOUSE,建安樓,26,1068.7,155.1,1223.8,14,40,20800,0.4,1,0,0,1,0,835959,814945,灣仔區,Wan Chai,*,55.33560938
147,1,147,https://hk.centanet.com/findproperty/centadata-details/%E4%BE%AF%E7%8E%8B%E9%81%9322%E8%99%9F_2-EYBEBPERPB,侯王道22號,7002,22.32851,114.18884,NO SPECIFIC NAME,沒有名稱,0,461.5,173,634.5,5,68,19010,0.05,0,0,1,1,0,0,0,九龍城區,Kowloon City, ,47.83199333
148,1,148,https://hk.centanet.com/findproperty/centadata-details/%E6%89%93%E9%BC%93%E5%B6%BA%E9%81%9357%E8%99%9F_2-MSITZHLAHN,打鼓嶺道57號,7004,22.32968,114.19135,NO SPECIFIC NAME,沒有名稱,0,903.9,148,1051.9,9,55,22230,0.3,0,0,0,0,0,837760,821183,九龍城區,Kowloon City,*,45.07581418
149,1,149,https://hk.centanet.com/findproperty/centadata-details/%E5%9F%BA%E9%9A%86%E8%A1%9773%E8%99%9F_2-UUOOURQJRO,基隆街73號,7005,22.32549,114.16604,NO SPECIFIC NAME,沒有名稱,0,1037.5,148.8,1186.3,9,59,12790,0.2,0,0,0,1,0,0,0,油尖旺區,Yau Tsim Mong, ,44.79527033
150,1,150,https://hk.centanet.com/findproperty/centadata-details/%E6%98%8C%E7%9B%9B%E8%8B%91_2-NSHHIHSEHX,昌盛苑,7026,22.48367,114.13788,CHEONG CHING HOUSE,昌靖閣,1280,91205,330.2,91535.2,41,25,27000,1.5,1,0,0,1,1,832272,838242,北區,North,*,174.6194483
151,1,151,https://hk.centanet.com/findproperty/centadata-details/%E5%AF%8C%E5%AE%89%E8%8A%B1%E5%9C%92_2-GYSPBPEYPB,富安花園,7035,22.40497,114.22333,CHEVALIER GARDEN COMMERCIAL COMPLEX,富安花園商場,0,0,15166,15166,4,37,30740,2,1,0,0,1,1,0,0,沙田區,Sha Tin, ,526.7078567
152,2,152,https://hk.centanet.com/findproperty/centadata-details/%E8%88%88%E7%A5%A5%E5%A4%A7%E5%BB%88_2-TNNHTHZXHI,興祥大廈,7042,22.28369,114.22097,HING CHEONG BUILDING,興祥大廈,0,14970,1335,16305,20,61,14250,0.3,1,1,0,1,0,840804,816089,東區,Eastern,**,133.2694788
153,2,153,https://hk.centanet.com/findproperty/centadata-details/%E6%9D%B1%E5%AF%B6%E5%A4%A7%E5%BB%88_2-UUOQURFARU,東寶大廈,7042,22.28068,114.23045,TUNG PO MANSION,東寶大廈,100,5949.9,1017.6,6967.5,27,40,32100,0.05,1,0,0,0,0,841795,815747,東區,Eastern,*,93.91769936
154,1,154,https://hk.centanet.com/findproperty/centadata-details/%E7%A9%97%E7%A6%BE%E8%8B%91_2-GYSEBPYEPK,穗禾苑,7058,22.39224,114.19444,SUI WO COURT MARKET,穗禾苑街市,0,0,212,212,1,0,31590,0.6,0,0,0,0,0,0,0,沙田區,Sha Tin, ,60.87441975
155,1,155,https://hk.centanet.com/findproperty/centadata-details/%E9%B3%B3%E5%84%80%E8%A1%9715%E8%99%9F_2-EKDSGPPAPE,鳳儀街15號,7078,22.32185,114.19133,NO SPECIFIC NAME,沒有名稱,0,1481,174,1655,8,64,18520,0.5,0,0,1,0,0,0,0,九龍城區,Kowloon City, ,29.759064
156,1,156,https://hk.centanet.com/findproperty/centadata-details/%E9%B3%B3%E5%BE%B7%E9%82%A8_2-EYPPWPPYPS,鳳德邨,7084,22.3438,114.19996,FUNG TAK COMMERCIAL CENTRE,鳳德商場,0,0,23003.6,23003.6,4,34,20750,0.5,0,0,0,0,1,0,0,黃大仙區,Wong Tai Sin, ,486.5667916
157,1,157,https://hk.centanet.com/findproperty/centadata-details/%E5%BE%B7%E5%AE%89%E5%A4%A7%E6%A8%93_2-MXXSZHIXHI,德安大樓,7092,22.32689,114.16787,TAK ON BUILDING,德安大廈,0,2736.8,344,3080.8,14,60,24000,0.2,1,1,0,1,0,835341,820873,深水埗區,Sham Shui Po,**,71.73957068
158,1,158,https://hk.centanet.com/findproperty/centadata-details/%E6%B5%B7%E9%98%B2%E5%A4%A7%E5%BB%88_2-ESKWBPBAPS,海防大廈,7107,22.29798,114.17178,HAI PHONG MANSION,海防大廈,0,12280.7,2176.9,14457.6,16,64,22000,0.05,1,1,0,1,0,835742,817677,油尖旺區,Yau Tsim Mong,**,133.5568721
159,1,159,https://hk.centanet.com/findproperty/centadata-details/%E9%BA%97%E7%81%A3%E5%A4%A7%E5%BB%88_2-TNHMTHZXHI,麗灣大廈,7114,22.28333,114.22125,LAI WAN BUILDING,麗灣大廈,0,16196.8,2257.7,18454.5,19,59,14250,0.2,1,1,0,1,0,840833,816049,東區,Eastern,**,154.1753707
160,2,160,https://hk.centanet.com/findproperty/centadata-details/%E6%B0%B8%E9%A0%86%E5%A4%A7%E5%BB%88_2-EWBDBPBJPK,永順大廈,7125,22.33758,114.15812,WING SHUN BUILDING,永順大廈,0,2229.5,906.8,3136.3,13,50,18000,0.3,1,0,1,1,0,834337,822052,深水埗區,Sham Shui Po,*,73.60056656
161,1,161,https://hk.centanet.com/findproperty/centadata-details/%E9%BE%8D%E5%BE%B7%E8%8B%91_2-SWABPPPVSB,龍德苑,7126,22.22053,114.20785,CHUN TAK HOUSE,晉德閣,0,24755.7,0,24755.7,12,24,25590,0,1,0,0,1,0,839454,809107,南區,Southern,*,558.0914405
162,2,162,https://hk.centanet.com/findproperty/centadata-details/%E6%9D%B1%E6%B5%B7%E5%A4%A7%E5%BB%88_2-UUQDURSRRU,東海大廈,7128,22.3233,114.16882,COSMOPOLITAN CENTRE (ALLIED PLAZA UNDER),東海大廈（下層聯合廣場）,0,19363.1,10609.2,29972.3,14,51,26000,0.05,1,2,0,1,0,835445,820483,油尖旺區,Yau Tsim Mong,***,351.9272657
163,1,163,https://hk.centanet.com/findproperty/centadata-details/%E6%96%B0%E8%88%88%E8%8A%B1%E5%9C%92_2-GWGKPPKRPS,新興花園,7148,22.45399,114.17317,SUN HING GARDEN - PODIUM,新興花園 - 平台,1442,79242,4146,83388,1,38,33500,1.5,1,0,0,1,1,835861,834949,大埔區,Tai Po,*,665.0338539
164,2,164,https://hk.centanet.com/findproperty/centadata-details/%E5%B8%9D%E6%BF%A4%E7%81%A3_3-ZMNMIHMXHI,帝濤灣,7150,22.37403,113.99079,STARFRONT ROYALE TOWER 1,帝御．星涛第１座,1782,61621.3,0,61621.3,16,3,41000,2.5,0,0,0,0,0,0,0,屯門區,Tuen Mun, ,162.0745557
165,1,165,https://hk.centanet.com/findproperty/centadata-details/%E9%81%A0%E6%9D%B1%E5%A4%A7%E5%BB%88_2-ESEGPPBJPK,遠東大廈,7166,22.2959,114.17289,FAR EAST MANSION,遠東大廈,0,16308,1652.2,17960.2,19,65,21000,0.05,1,1,0,1,0,835856,817441,油尖旺區,Yau Tsim Mong,**,152.0165035
166,1,166,https://hk.centanet.com/findproperty/centadata-details/%E5%BE%B7%E4%BB%81%E6%A8%93_2-AEYDGPGXPK,德仁樓,7172,22.37155,114.11245,TAK YAN BUILDING STAGE 11,德仁樓第十一期,0,357,82.8,439.8,7,52,17740,0.4,0,0,1,0,0,829633,825819,荃灣區,Tsuen Wan,*,41.12358685
167,1,167,https://hk.centanet.com/findproperty/centadata-details/%E5%81%89%E6%99%AF%E8%8A%B1%E5%9C%92_2-VDJUQRUVRU,偉景花園,7194,22.35619,114.1041,BROADVIEW GARDEN SHOPPING CENTRE,偉景花園商場,0,0,1622,1622,2,33,31470,4,0,0,0,0,1,0,0,葵青區,Kwai Tsing, ,227.8713888
168,1,168,https://hk.centanet.com/findproperty/centadata-details/%E6%BE%A4%E8%B1%90%E8%8A%B1%E5%9C%92_2-VDRRURFYRO,澤豐花園,7219,22.4036,113.97494,NO SPECIFIC NAME,澤豐花園街市商場,0,0,5570.3,5570.3,3,35,29150,0.05,1,0,0,1,1,0,0,屯門區,Tuen Mun, ,125.9997811
169,1,169,https://hk.centanet.com/findproperty/centadata-details/%E4%B8%AD%E8%8B%B1%E6%A8%93_2-MMTDZHSJHT,中英樓,7224,22.32303,114.16142,CHUNG YING BUILDING,中英樓,0,21569.8,2203.1,23772.9,15,59,16750,0.6,1,2,0,1,0,834674,820446,油尖旺區,Yau Tsim Mong,***,462.5323541
170,1,170,https://hk.centanet.com/findproperty/centadata-details/%E6%85%88%E6%84%9B%E8%8B%91_3-MSHTIHSHTT,慈愛苑,7239,22.34957,114.19966,TSZ OI COURT,慈愛苑,0,0,8088.6,8088.6,6,28,27000,1.5,1,0,0,0,1,0,0,黃大仙區,Wong Tai Sin, ,206.8277295
171,1,171,https://hk.centanet.com/findproperty/centadata-details/%E6%A6%AE%E5%BE%B7%E5%A4%A7%E5%BB%88_2-EEWKWPWYPY,榮德大廈,7241,22.3131,114.17014,WING TAK BUILDING,榮德大廈,0,4556.7,596.2,5152.9,16,59,21840,0.05,1,1,1,1,0,835577,819343,油尖旺區,Yau Tsim Mong,**,71.47442416
172,1,172,https://hk.centanet.com/findproperty/centadata-details/%E5%BA%B7%E7%BF%A0%E8%87%BA_2-SGEDWPWJPA,康翠臺,7245,22.26655,114.23471,GREENWOOD TERRACE - PODIUM,康翠臺 - 平台,0,20579.9,0,20579.9,1,39,39700,0.4,1,0,0,1,1,842213,814194,東區,Eastern,*,575.4882884
173,1,173,https://hk.centanet.com/findproperty/centadata-details/%E5%BB%A3%E6%9D%B1%E9%81%93526%E8%99%9F_2-MMSHTHTSHN,廣東道526號,7250,22.30634,114.16826,NO SPECIFIC NAME,沒有名稱,0,627.9,92.1,720,7,60,16640,0.2,0,0,1,0,0,835380,818597,油尖旺區,Yau Tsim Mong,*,29.39825415
174,1,174,https://hk.centanet.com/findproperty/centadata-details/%E7%BF%A0%E5%9C%92%E5%A4%A7%E6%A8%93_2-EEYYBPPXPD,翠園大樓,7260,22.31606,114.17311,TSUI YUEN MANSION PHASE 2,翠園大樓（二期）,0,6196.7,600,6796.7,11,60,17500,0.4,1,0,0,1,0,835883,819684,油尖旺區,Yau Tsim Mong,*,125.3917307
175,1,175,https://hk.centanet.com/findproperty/centadata-details/%E6%9D%B1%E7%86%B9%E8%8B%91_2-SGEAWPWVPG,東熹苑,7277,22.28019,114.21844,KING HEI HOUSE,景熹閣,0,45613.2,670.4,46283.6,39,29,26190,0.8,1,0,0,0,1,840552,815703,東區,Eastern,*,233.0552475
176,1,176,https://hk.centanet.com/findproperty/centadata-details/%E5%B4%87%E9%9B%85%E6%A8%93_2-EGYYBPSAPD,崇雅樓,7282,22.30311,114.24023,KWONG NGAR HOUSE,廣雅樓,0,32266.9,43,32309.9,39,32,20510,2,1,0,0,0,1,842798,818252,觀塘區,Kwun Tong,*,260.2485229
177,1,177,https://hk.centanet.com/findproperty/centadata-details/%E8%90%AC%E5%AE%89%E8%A1%979%E8%99%9F_2-MMZSIHZAHT,萬安街9號,7282,22.3235,114.16126,NO SPECIFIC NAME,沒有名稱,0,685,133,818,7,66,16130,0.6,0,0,1,0,0,0,0,油尖旺區,Yau Tsim Mong, ,33.73300314
178,1,178,https://hk.centanet.com/findproperty/centadata-details/%E5%9F%8E%E5%8D%97%E5%A4%A7%E6%A8%93_2-MSMSIHSAHN,城南大樓,7282,22.33015,114.19083,SOUTH WALL MANSION,城南大樓,0,2610.1,760.3,3370.4,10,59,17000,0.3,0,0,0,0,0,837706,821235,九龍城區,Kowloon City,*,44.29625542
179,1,179,https://hk.centanet.com/findproperty/centadata-details/%E5%98%89%E7%9B%9B%E8%8B%91_2-BYPPGPYHPG,嘉盛苑,7288,22.49439,114.13422,KA MING HOUSE,嘉明閣,2432,152227,2437.3,154664.3,39,29,32000,0.9,1,0,0,1,1,831880,839421,北區,North,*,196.8837927
180,1,180,https://hk.centanet.com/findproperty/centadata-details/%E6%83%A0%E7%8F%8D%E6%A8%93_2-MXXLTHSHHX,惠珍樓,7289,22.33215,114.16375,WAI CHUN HOUSE,惠珍樓,0,1340,383.6,1723.6,9,58,17300,0.2,0,1,1,0,0,834916,821456,深水埗區,Sham Shui Po,**,57.22735343
181,1,181,https://hk.centanet.com/findproperty/centadata-details/%E9%87%91%E6%A8%82%E6%A8%93_2-UDJUFRFXRS,金樂樓,7299,22.33445,114.1608,KAM LOK HOUSE,金樂樓,10,295,198.9,493.9,6,39,27600,0.4,0,0,0,1,0,834609,821707,深水埗區,Sham Shui Po,*,52.41636638
182,1,182,https://hk.centanet.com/findproperty/centadata-details/%E5%83%91%E5%86%A0%E5%A4%A7%E5%BB%88_2-SBKKBPBXPA,僑冠大廈,7305,22.29127,114.19915,KIU KWAN MANSION BLOCK A,僑冠大廈A座,0,41330.2,7877.8,49208,28,58,21070,0.05,1,1,0,1,0,838581,816913,東區,Eastern,**,148.6043173
183,1,183,https://hk.centanet.com/findproperty/centadata-details/%E5%A4%A7%E5%8D%97%E8%A1%97125%E8%99%9F_2-MMSNIHSSHT,大南街125號,7306,22.32581,114.16476,NO SPECIFIC NAME,沒有名稱,10,465.7,256,721.7,6,47,12490,0.4,0,0,1,0,0,0,0,油尖旺區,Yau Tsim Mong, ,45.24771474
184,2,184,https://hk.centanet.com/findproperty/centadata-details/%E8%A3%95%E7%99%BC%E5%A4%A7%E6%A8%93_2-VCDRURCERO,裕發大樓,7310,22.33241,114.16382,YUE FAT BUILDING,裕發大樓,40,1302.5,463.8,1766.3,11,45,17300,0.2,1,0,1,1,0,834924,821485,深水埗區,Sham Shui Po,*,60.33187912
185,1,185,https://hk.centanet.com/findproperty/centadata-details/%E8%8F%AF%E5%93%A1%E9%82%A8_2-EBPYWPWXPD,華員邨,7313,22.34964,114.136,WAH CHI COURT,華智閣,0,17769.8,0,17769.8,32,43,42410,3,1,0,0,0,0,832057,823391,葵青區,Kwai Tsing,*,95.06143957
186,1,186,https://hk.centanet.com/findproperty/centadata-details/%E6%80%A1%E9%96%A3%E8%8B%91_2-EGPKPPPXPB,怡閣苑,7321,22.33287,114.15891,YEE YAN HOUSE,怡欣閣,0,18327,179.3,18506.3,13,41,18000,0.3,1,0,0,0,0,834415,821533,深水埗區,Sham Shui Po,*,123.3540556
187,1,187,https://hk.centanet.com/findproperty/centadata-details/%E6%99%AF%E5%B3%B0%E8%8A%B1%E5%9C%92_2-VDJUQRURRU,景峰花園,7335,22.40302,113.97962,PRIME VIEW GARDEN COMMERCIAL COMPLEX,景峰花園商場,0,0,3200.6,3200.6,2,39,25500,0.05,0,0,0,1,1,0,0,屯門區,Tuen Mun, ,129.5577496
188,2,188,https://hk.centanet.com/findproperty/centadata-details/%E9%87%91%E5%AE%89%E5%A4%A7%E5%BB%88_2-EEPDWPASPS,金安大廈,7336,22.33281,114.16419,KAM ON BUILDING,金安大廈,29,1068.6,477,1545.6,12,39,17300,0.2,1,0,1,0,0,834961,821529,深水埗區,Sham Shui Po,*,61.88768441
189,1,189,https://hk.centanet.com/findproperty/centadata-details/%E7%A6%8F%E7%85%A7%E6%A8%93_2-BWDGPPAJPS,福照樓,7340,22.44287,114.02501,FUK CHIU HOUSE - PODIUM,福照樓 - 平台,0,1205.7,312.9,1518.6,1,52,27380,0.2,0,1,0,1,0,820635,833721,元朗區,Yuen Long,**,71.02628783
190,1,190,https://hk.centanet.com/findproperty/centadata-details/%E9%AB%98%E4%BF%8A%E8%8B%91_2-MLSMTHHAHS,高俊苑,7357,22.29799,114.24226,KO CHUN COURT MULTI-STOREY CAR PARK,高俊苑多層停車場,0,0,4788,4788,6,29,32000,0.9,0,0,0,1,1,0,0,觀塘區,Kwun Tong, ,176.7930255
191,1,191,https://hk.centanet.com/findproperty/centadata-details/%E6%84%89%E7%94%B0%E8%8B%91_2-XSLTTHNSHT,愉田苑,7360,22.38416,114.2029,YUE CHAK HOUSE,愉田苑Ｄ座,0,11461.5,0,11461.5,28,42,30000,0.4,1,0,0,0,1,838948,827216,沙田區,Sha Tin,*,112.7323161
192,1,192,https://hk.centanet.com/findproperty/centadata-details/%E5%BB%BA%E7%85%8C%E8%8F%AF%E5%BB%88_2-EEDDWPBJPE,建煌華廈,7365,22.32049,114.17129,KIN WONG MANSION STAGE 1,建煌華廈第一期,0,4362,439,4801,13,63,20000,0.1,1,2,1,1,0,835691,820170,油尖旺區,Yau Tsim Mong,***,73.76149888
193,1,193,https://hk.centanet.com/findproperty/centadata-details/%E5%BB%A3%E8%A3%95%E5%A4%A7%E5%BB%88_2-UUOVQRUVRC,廣裕大廈,7379,22.31655,114.16695,KWONG YU BUILDING,廣裕大廈,0,10166.1,787.9,10954,14,59,15880,0.3,0,0,0,0,0,0,0,油尖旺區,Yau Tsim Mong, ,45.86279056
194,1,194,https://hk.centanet.com/findproperty/centadata-details/%E6%99%AF%E6%98%8E%E8%8B%91_2-GDAPGPGJPB,景明苑,7383,22.32289,114.24983,YUK KING HOUSE,旭景閣,0,22597.3,347.8,22945.1,35,36,23940,2,1,0,0,0,0,843786,820436,西貢區,Sai Kung,*,185.3386585
195,1,195,https://hk.centanet.com/findproperty/centadata-details/%E6%96%B0%E5%85%83%E6%B4%B2%E5%A4%A7%E5%BB%88_2-UDVOURFRRS,新元洲大廈,7392,22.33411,114.16067,NEW UN CHAU BUILDING,新元洲大廈,0,2656,237,2893,12,62,24300,0.3,1,1,0,1,0,834599,821672,深水埗區,Sham Shui Po,**,62.2030276
196,1,196,https://hk.centanet.com/findproperty/centadata-details/%E9%A0%8C%E6%98%8E%E8%8B%91_2-GDDYBPKSPA,頌明苑,7401,22.31865,114.26298,KAR MING HOUSE,嘉明閣,0,106500,738.5,107238.5,36,31,24990,0.4,1,0,0,1,1,845141,819962,西貢區,Sai Kung,*,179.9298206
197,2,197,https://hk.centanet.com/findproperty/centadata-details/%E6%99%AF%E6%96%B0%E8%87%BA_2-KEPPWPPOPB,景新臺,7406,22.40188,113.98049,KINGSTON TERRACE BLOCK 1,景新臺第１座,1152,71124.1,200.5,71324.6,41,22,25500,0.4,1,0,0,0,1,816047,829194,屯門區,Tuen Mun,*,223.3939564
198,1,198,https://hk.centanet.com/findproperty/centadata-details/%E6%A6%AE%E8%8F%AF%E6%A8%93_2-UDDJQROXOJ,榮華樓,7407,22.2782,114.22895,WING WAH BUILDING,榮華樓,15,457.2,171.5,628.7,6,44,25000,0.05,0,0,0,1,0,841634,815477,東區,Eastern,*,52.51304042
199,2,199,https://hk.centanet.com/findproperty/centadata-details/%E8%A3%95%E6%9D%B1%E8%8B%91_2-WBPPPPAYPP,裕東苑,7416,22.28584,113.9427,HEUNG TUNG HOUSE,向東閣,0,204947,3539.5,208486.5,39,27,38750,0.5,1,0,0,1,1,812134,816346,離島區,Islands,*,329.5166037
200,1,200,https://hk.centanet.com/findproperty/centadata-details/%E5%88%A9%E7%9B%9B%E5%A4%A7%E6%A8%93_2-UUJCFRDRRO,利盛大樓,7419,22.32328,114.16545,LEE SHING BUILDING,利盛大樓,0,3836,275,4111,16,61,16200,0.3,0,0,1,0,0,0,0,油尖旺區,Yau Tsim Mong, ,52.95555861
201,1,201,https://hk.centanet.com/findproperty/centadata-details/%E5%85%BC%E5%96%84%E9%87%8C40%E8%99%9F_2-UDORURDARO,兼善里40號,7430,22.33893,114.15315,NO SPECIFIC NAME,沒有名稱,0,24281,2763,27044,9,66,17100,0.3,0,0,1,0,0,0,0,深水埗區,Sham Shui Po, ,31.49986274
202,1,202,https://hk.centanet.com/findproperty/centadata-details/%E5%B1%AF%E9%96%80%E9%96%A3_2-ZMSSTHDSHN,屯門閣,7443,22.37811,113.98528,TUEN MUN COURT,屯門閣,84,12730.8,0,12730.8,29,41,49210,1.5,1,0,0,1,0,816521,826543,屯門區,Tuen Mun,*,118.9357869
203,1,203,https://hk.centanet.com/findproperty/centadata-details/%E5%AF%8C%E5%AF%B6%E8%8A%B1%E5%9C%92_2-XSTMIHXYHN,富寶花園,7444,22.42481,114.23746,SADDLE RIDGE GARDEN COMMERICAL COMPLEX,沒有名稱,0,0,2250,2250,3,31,29000,1.5,1,0,0,1,1,0,0,沙田區,Sha Tin, ,261.4981598
204,1,204,https://hk.centanet.com/findproperty/centadata-details/%E6%85%88%E5%AE%89%E8%8B%91_2-EYBYWPWAPS,慈安苑,7449,22.34828,114.20186,ON YAN HOUSE,安欣閣,0,42000,557.8,42557.8,39,30,29920,1.5,1,0,0,1,0,838841,823239,黃大仙區,Wong Tai Sin,*,307.4700522
205,1,205,https://hk.centanet.com/findproperty/centadata-details/%E6%80%9D%E6%BA%90%E6%A8%93_2-AEBKBPGXPK,思源樓,7464,22.37013,114.11631,SZE YUEN BUILDING,思源樓,0,1534.4,541.6,2076,6,57,15830,0.4,0,0,1,0,0,0,0,荃灣區,Tsuen Wan, ,46.66363871
206,1,206,https://hk.centanet.com/findproperty/centadata-details/%E5%BF%A0%E4%BF%A1%E5%A4%A7%E5%BB%88_2-UUDCQROYRJ,忠信大廈,7477,22.31737,114.18876,Chung Shun Mansion,忠信大廈,0,3903.8,731.2,4635,11,60,20000,0.05,1,1,1,1,0,837488,819823,九龍城區,Kowloon City,**,84.00802883
207,2,207,https://hk.centanet.com/findproperty/centadata-details/%E9%8C%A6%E5%9F%8E%E5%A4%A7%E5%BB%88_2-EGBYBPPJPD,錦城大廈,7495,22.45054,114.03022,GOLDEN TOWN INDUSTRIAL BUILDING,錦城工業中心,0,0,3650.1,3650.1,4,38,14380,0.7,1,0,0,0,0,0,0,元朗區,Yuen Long, ,134.9506861
208,2,208,https://hk.centanet.com/findproperty/centadata-details/%E5%9C%8B%E6%B2%BB%E6%A8%93_2-EGKKBPBXPK,國治樓,7500,22.33468,114.16178,KWOK CHI BUILDING,國治樓,0,961.5,356.8,1318.3,6,48,27600,0.4,0,0,0,1,0,834714,821737,深水埗區,Sham Shui Po,*,75.73651642
209,1,209,https://hk.centanet.com/findproperty/centadata-details/%E5%AE%89%E7%A5%A5%E5%A4%A7%E6%A8%93_2-MLNDIHMEHZ,安祥大樓,7500,22.31714,114.21571,ON CHEUNG HOUSE,安祥大樓,0,1606.1,322.5,1928.6,9,55,21250,0.4,0,0,0,1,0,840264,819797,觀塘區,Kwun Tong,*,78.00332023
210,1,210,https://hk.centanet.com/findproperty/centadata-details/%E9%8C%A6%E6%9A%89%E8%8A%B1%E5%9C%92_2-ZMHTTHDXHN,錦暉花園,7504,22.38359,113.98097,KAM FAI GARDEN BLOCK 1,錦暉花園１座,480,29323.6,0,29323.6,16,37,32210,0.8,1,0,0,1,0,816094,827166,屯門區,Tuen Mun,*,181.9616023
211,1,211,https://hk.centanet.com/findproperty/centadata-details/%E5%8C%97%E6%B2%B3%E8%A1%9784%E8%99%9F_2-MXMDZHXHHX,北河街84號,7504,22.32917,114.16188,NO SPECIFIC NAME,沒有名稱,0,1248,156,1404,9,62,17550,0.05,0,1,1,1,0,834723,821127,深水埗區,Sham Shui Po,**,48.24704322
212,1,212,https://hk.centanet.com/findproperty/centadata-details/%E9%AB%98%E7%99%BC%E5%A4%A7%E5%BB%88_2-EKBKBPSRPA,高發大廈,7512,22.29174,114.19822,GOLDFIELD MANSION,高發大廈,63,3614.1,994.5,4608.6,23,47,17720,0.2,1,0,1,1,0,838464,816988,東區,Eastern,*,93.63081927
213,1,213,https://hk.centanet.com/findproperty/centadata-details/%E8%8F%81%E9%9B%85%E5%B1%85_2-NLSITHIYHN,菁雅居,7517,22.42943,113.99859,MEADOWLANDS,菁雅居,24,2140.2,0,2140.2,5,28,38000,0.6,0,0,0,0,0,817911,832245,元朗區,Yuen Long,*,191.1523272
214,2,214,https://hk.centanet.com/findproperty/centadata-details/%E6%9B%89%E9%BA%97%E8%8B%91_2-UCCOURCJRQ,曉麗苑,7533,22.32075,114.22941,HIU LAI COMPLEX,曉麗商場,0,0,17280,17280,8,28,27500,1.5,1,0,0,1,1,0,0,觀塘區,Kwun Tong, ,236.327954
215,1,215,https://hk.centanet.com/findproperty/centadata-details/%E9%BA%97%E9%BA%97%E5%A4%A7%E5%BB%88_2-TDMNIHZXHT,麗麗大廈,7544,22.27791,114.17223,LILY MANSION,麗麗大廈,0,3750.8,657,4407.8,13,59,16000,0.05,1,1,0,1,0,835783,815454,灣仔區,Wan Chai,**,91.7118502
216,1,216,https://hk.centanet.com/findproperty/centadata-details/%E6%A8%82%E8%BB%92%E8%87%BA_2-ODRRFROVRV,樂軒臺,7548,22.26398,114.24091,LOK HIN TERRACE - PODIUM,樂軒臺 - 平台,1550,88044.7,1341.1,89385.8,3,29,30000,0.6,1,0,0,0,1,842815,813851,東區,Eastern,*,557.6712309
217,1,217,https://hk.centanet.com/findproperty/centadata-details/%E7%9A%87%E5%90%8E%E5%A4%A7%E9%81%93%E8%A5%BF%20349%20%E8%99%9F_2-SSBEGPBHPE,皇后大道西 349 號,7548,22.28709,114.14096,NO SPECIFIC NAME,沒有名稱,0,947.4,461.6,1409,9,59,24550,0.05,0,0,0,1,0,0,0,中西區,Central and Western, ,39.39046458
218,2,218,https://hk.centanet.com/findproperty/centadata-details/%E5%88%A9%E5%9F%BA%E5%A4%A7%E5%BB%88_2-MLMLZHSYHT,利基大廈,7557,22.2813,114.22166,LEE GA BUILDING,利基大廈,182,8672,1984.7,10656.7,26,43,20700,0.05,1,0,0,1,0,840886,815833,東區,Eastern,*,136.3441216
219,1,219,https://hk.centanet.com/findproperty/centadata-details/%E7%BF%A0%E5%AF%A7%E8%8A%B1%E5%9C%92_2-VDRVFRORRO,翠寧花園,7568,22.3848,113.97437,TSUI NING GARDEN BLOCK 6,翠寧花園第６座,2000,123632,3965.5,127597.5,36,33,28800,0.05,1,0,0,0,1,815415,827292,屯門區,Tuen Mun,*,185.8429355
220,1,220,https://hk.centanet.com/findproperty/centadata-details/%E6%AC%A3%E6%98%8E%E8%8B%91_2-XIMHZHZXHD,欣明苑,7581,22.32452,114.25897,YAN MING COURT COMMERCIAL COMPLEX,欣明苑商場,0,0,6955.5,6955.5,3,34,26250,0.4,0,0,0,0,1,0,0,西貢區,Sai Kung, ,287.8510333
221,1,221,https://hk.centanet.com/findproperty/centadata-details/%E9%BA%97%E9%83%BD%E8%8A%B1%E5%9C%92_2-DZHHZHTYHH,麗都花園,7590,22.3665,114.05937,LIDO GARDEN - (PODIUM,麗都花園 - 平台,1400,91383.9,1691.4,93075.3,1,36,46500,0,1,0,0,0,1,824086,825225,荃灣區,Tsuen Wan,*,513.2933164
222,2,222,https://hk.centanet.com/findproperty/centadata-details/%E5%AF%B6%E5%88%A9%E5%A4%A7%E5%BB%88_2-TNHXZHNXHN,寶利大廈,7614,22.30831,114.18361,BULKELEY HOUSE,寶利大廈,26,1018.4,137.6,1156,14,34,20800,0.05,1,0,1,0,0,836962,818815,九龍城區,Kowloon City,*,52.74603478
223,1,223,https://hk.centanet.com/findproperty/centadata-details/%E8%8A%9D%E8%98%AD%E6%A8%93_2-UUUFFRDHRU,芝蘭樓,7614,22.32591,114.16847,ORCHID HOUSE,芝蘭樓,0,3383.7,312.3,3696,12,60,20000,0.05,1,0,0,0,0,835400,820762,油尖旺區,Yau Tsim Mong,*,88.65453361
224,1,224,https://hk.centanet.com/findproperty/centadata-details/%E7%A6%8F%E6%98%8C%E6%A8%93_2-BWPYPPKXSS,福昌樓,7619,22.33029,114.16364,FUK CHEONG BUILDING,福昌樓,10,291.6,195.8,487.4,6,42,17550,0.05,0,0,0,1,0,834905,821250,深水埗區,Sham Shui Po,*,52.72051929
225,2,225,https://hk.centanet.com/findproperty/centadata-details/%E9%8C%A6%E6%A6%AE%E5%A4%A7%E5%BB%88_2-BWWKGPBXPS,錦榮大廈,7625,22.44483,114.03086,KAM WING MANSION,錦榮大廈,40,2347.3,564.9,2912.2,23,36,21250,0.05,1,0,0,0,0,821235,833942,元朗區,Yuen Long,*,48.60451917
226,1,226,https://hk.centanet.com/findproperty/centadata-details/%E7%99%BE%E7%A6%8F%E5%A4%A7%E5%BB%88_2-SBSYBPKYPA,百福大廈,7639,22.28992,114.19934,PAK FOOK BUILDING,百福大樓,0,13461.8,521.6,13983.4,14,62,21490,0.2,1,1,0,1,0,838586,816764,東區,Eastern,**,143.4932692
227,1,227,https://hk.centanet.com/findproperty/centadata-details/%E9%BE%8D%E6%AC%A3%E8%8B%91_2-SWSBPPPXPB,龍欣苑,7642,22.22188,114.20542,LUNG CHUN HOUSE,龍駿閣,0,25026.3,93.7,25120,12,31,25590,0,1,0,0,1,0,839209,809246,南區,Southern,*,383.1571496
228,1,228,https://hk.centanet.com/findproperty/centadata-details/%E5%BE%B7%E4%BF%A1%E5%A4%A7%E6%A8%93_2-GWKGWPKXPS,德信大樓,7647,22.44805,114.16657,TAK SHUN BUILDING,德信大樓,0,1520.4,883,2403.4,8,53,14270,0.8,0,1,1,1,0,835202,834293,大埔區,Tai Po,**,87.82620073
229,1,229,https://hk.centanet.com/findproperty/centadata-details/%E5%BA%B7%E9%9B%85%E8%8B%91_2-EWAYWPWYPD,康雅苑,7691,22.30605,114.23823,TAO NGA HOUSE,桃雅閣,0,113937,943.2,114880.2,39,31,29000,0.7,1,0,0,1,1,842593,818576,觀塘區,Kwun Tong,*,195.5295655
230,1,230,https://hk.centanet.com/findproperty/centadata-details/%E9%80%9A%E8%8F%9C%E8%A1%97171A%E8%99%9F_2-EESEGPYVPE,通菜街171A號,7692,22.322,114.16984,NO SPECIFIC NAME,沒有名稱,0,286.1,73.6,359.7,6,52,17380,0.2,0,0,1,1,0,835543,820332,油尖旺區,Yau Tsim Mong,*,40.45175508
231,1,231,https://hk.centanet.com/findproperty/centadata-details/%E7%9B%8A%E8%B1%90%E5%A4%A7%E5%BB%88_2-MZHNTHSJHM,益豐大廈,7692,22.31517,114.18927,I-FENG MANSIONS BLOCK A,益豐大廈Ａ座,0,53839.3,2734.4,56573.7,15,52,17770,0.2,1,2,0,1,1,837549,819573,九龍城區,Kowloon City,***,212.2784642
232,1,232,https://hk.centanet.com/findproperty/centadata-details/%E6%9D%B1%E7%99%BC%E6%A8%93_2-UUURFRCHRU,東發樓,7692,22.28528,114.1526,WING FAT HOUSE,榮發樓,0,0,922.4,922.4,6,41,27200,0.05,1,0,0,0,0,0,0,中西區,Central and Western, ,50.15818525
233,1,233,https://hk.centanet.com/findproperty/centadata-details/%E5%BA%B7%E8%8F%AF%E8%8B%91_2-UCOFFRCXRJ,康華苑,7695,22.31359,114.24009,WANG HONG HOUSE,宏康閣,0,27850.8,33.7,27884.5,38,40,26000,1.5,1,0,0,1,1,842782,819402,觀塘區,Kwun Tong,*,198.5756079
234,2,234,https://hk.centanet.com/findproperty/centadata-details/%E6%9D%8E%E9%84%AD%E5%B1%8B%E9%82%A8_2-EGPPWPPJPE,李鄭屋邨,7710,22.33853,114.15847,LEI CHENG UK ARCADE,李鄭屋商場,0,0,8267.4,8267.4,3,40,17490,0.4,1,0,0,1,1,0,0,深水埗區,Sham Shui Po, ,117.4284087
235,1,235,https://hk.centanet.com/findproperty/centadata-details/%E6%96%B0%E5%A1%AB%E5%9C%B0%E8%A1%97469%E8%99%9F_2-UUFOURJXRO,新填地街469號,7725,22.32008,114.16729,NO SPECIFIC NAME,沒有名稱,0,707,98,805,9,63,16490,0.1,0,0,1,0,0,0,0,油尖旺區,Yau Tsim Mong, ,38.30121541
236,1,236,https://hk.centanet.com/findproperty/centadata-details/%E7%BE%8E%E6%9D%BE%E8%8B%91_2-XSTXTHIJHZ,美松苑,7747,22.38013,114.17333,FU CHUNG HOUSE,美松苑Ａ座,0,20781.2,0,20781.2,36,28,40000,0.9,1,0,0,1,1,835903,826771,沙田區,Sha Tin,*,183.0060309
237,1,237,https://hk.centanet.com/findproperty/centadata-details/%E6%81%92%E8%B1%90%E5%9C%92_2-NXHSIHSJHT,恒豐園,7755,22.38397,113.98107,HARVEST GARDEN BLOCK 1,恆豐園１座,408,24931.9,0,24931.9,20,30,32210,0.8,1,0,0,1,0,816106,827207,屯門區,Tuen Mun,*,181.2466795
238,1,238,https://hk.centanet.com/findproperty/centadata-details/%E5%AF%B6%E7%8F%AE%E8%8B%91_2-UCOVURVSRS,寶珮苑,7755,22.31715,114.22879,PO PUI COURT PO SHAN HOUSE,寶珊閣,0,20759.3,22,20781.3,36,29,20650,1,1,0,0,0,1,841619,819808,觀塘區,Kwun Tong,*,180.1838198
239,1,239,https://hk.centanet.com/findproperty/centadata-details/%E7%BF%A0%E7%91%A4%E8%8B%91_2-DMXIZHSXHS,翠瑤苑,7756,22.35065,114.13166,TSUI YIU COURT,翠瑤苑,292,15793.3,198.6,15991.9,26,44,51500,2,1,0,0,1,0,831611,823504,葵青區,Kwai Tsing,*,218.0738215
240,2,240,https://hk.centanet.com/findproperty/centadata-details/%E9%87%91%E6%B5%B7%E5%A4%A7%E5%BB%88_2-EGEGBPKVPB,金海大廈,7772,22.32943,114.15707,KAM HOI MANSION,金海大廈,76,2590.3,381.8,2972.1,14,45,23250,0.4,1,0,0,1,0,834230,821152,深水埗區,Sham Shui Po,*,95.73330953
241,1,241,https://hk.centanet.com/findproperty/centadata-details/%E5%92%8C%E6%98%8E%E8%8B%91_2-XIZNZHTEHD,和明苑,7775,22.31527,114.2665,WO YAT HOUSE,和逸閣,0,162000,1385.7,163385.7,41,25,25700,0.2,1,0,0,1,1,845503,819590,西貢區,Sai Kung,*,254.6957878
242,2,242,https://hk.centanet.com/findproperty/centadata-details/%E5%A5%BD%E5%88%A9%E6%B4%8B%E6%A8%93_2-BWWAGPBXPS,好利洋樓,7784,22.44492,114.02703,HOLLY BUILDING,好利洋樓,134,5120.9,500.8,5621.7,25,46,14750,0.05,1,0,0,0,0,820844,833952,元朗區,Yuen Long,*,91.66033357
243,1,243,https://hk.centanet.com/findproperty/centadata-details/%E6%B0%B8%E8%80%80%E8%A1%979%E8%99%9F_2-MZLHIHLJHT,永耀街9號,7792,22.31927,114.18799,NO SPECIFIC NAME,沒有名稱,0,1331,166,1497,10,66,20000,0.2,0,0,0,0,0,0,0,九龍城區,Kowloon City, ,26.80272878
244,1,244,https://hk.centanet.com/findproperty/centadata-details/%E5%AF%8C%E6%AC%A3%E8%8A%B1%E5%9C%92_2-ODQFQRVSRV,富欣花園,7794,22.26532,114.24836,HARMONY GARDEN BLOCK 8,富欣花園第８座,2340,136469,5375.2,141844.2,33,28,37160,1.5,1,0,0,1,1,843634,814057,東區,Eastern,*,199.3761171
245,1,245,https://hk.centanet.com/findproperty/centadata-details/%E6%99%AF%E7%94%B0%E8%8B%91_2-DFJJURSARV,景田苑,7805,22.36656,114.17986,MAN SAM HOUSE,文心閣,0,12601.1,142.6,12743.7,31,41,27000,1.5,1,0,0,0,1,836580,825259,沙田區,Sha Tin,*,114.6241849
246,1,246,https://hk.centanet.com/findproperty/centadata-details/%E8%B1%90%E6%99%AF%E6%A8%93_2-MLXMIHLHHZ,豐景樓,7822,22.31478,114.22732,FUNG KING BUILDING,豐景樓,0,5347.4,0,5347.4,13,60,28500,0.7,1,0,0,1,0,841477,819536,觀塘區,Kwun Tong,*,166.5294545
247,1,247,https://hk.centanet.com/findproperty/centadata-details/%E6%A5%93%E8%8F%AF%E6%A8%93_2-UDDUURUSRJ,楓華樓,7836,22.32834,114.16616,MAPLE MANSION,楓華樓,0,3929.7,953.6,4883.3,12,59,22320,0.4,1,2,0,1,0,835164,821038,深水埗區,Sham Shui Po,***,92.97417251
248,1,248,https://hk.centanet.com/findproperty/centadata-details/%E6%B0%B8%E5%A6%82%E5%A4%A7%E5%BB%88_2-UUJJURVRRO,永如大廈,7849,22.31986,114.16898,WINNER MANSION,永如大廈,0,4802.4,2389.5,7191.9,17,56,17850,0.05,1,0,1,0,0,0,0,油尖旺區,Yau Tsim Mong, ,59.70578154
249,1,249,https://hk.centanet.com/findproperty/centadata-details/%E6%B0%B8%E8%8F%AF%E5%A4%A7%E5%BB%88_2-OOCVFRVORU,永華大廈,7852,22.27783,114.22924,WING WAH HOUSE,永華大廈,0,1516,257.3,1773.3,10,58,25000,0.05,1,0,0,1,0,841663,815448,東區,Eastern,*,58.19277464
250,1,250,https://hk.centanet.com/findproperty/centadata-details/%E5%9F%BA%E9%9A%86%E8%A1%97230%E8%99%9F_2-MXMHZHDXHX,基隆街230號,7858,22.32894,114.16211,NO SPECIFIC NAME,沒有名稱,0,1192.9,143.4,1336.3,10,62,17550,0.05,0,0,1,1,0,0,0,深水埗區,Sham Shui Po, ,47.10307108
251,2,251,https://hk.centanet.com/findproperty/centadata-details/%E9%8C%A6%E7%8F%8A%E5%9C%92_2-VCRRQROXRV,錦珊園,7867,22.43396,113.9973,CORONET COURT,錦珊園,88,5861.3,700.2,6561.5,13,29,31000,0.05,1,0,0,0,0,817782,832741,元朗區,Yuen Long,*,202.1458148
252,2,252,https://hk.centanet.com/findproperty/centadata-details/%E5%85%83%E5%B7%9E%E8%A1%9718A%E8%99%9F_2-MXDSTHSVHX,元州街18A號,7868,22.33165,114.16431,NO SPECIFIC NAME,沒有名稱,0,2380,420.4,2800.4,10,60,18000,0.2,0,1,0,1,0,834978,821397,深水埗區,Sham Shui Po,**,86.23632315
253,2,253,https://hk.centanet.com/findproperty/centadata-details/%E5%AF%8C%E6%99%AF%E8%8A%B1%E5%9C%92_2-TXZHZHNYHN,富景花園,7877,22.28179,114.14741,SCENIC HEIGHTS BLOCK 1,富景花園 第一座,216,20033.1,0,20033.1,33,37,76500,0.8,1,0,0,0,0,833222,815882,中西區,Central and Western,*,111.328415
254,1,254,https://hk.centanet.com/findproperty/centadata-details/%E6%81%86%E6%98%9F%E6%A8%93_2-ESDYBPGAPK,恆星樓,7879,22.41762,114.22886,HENG SING HOUSE,恆星樓,816,43261,1245,44506,35,37,23750,1.5,1,0,0,0,1,841624,830924,沙田區,Sha Tin,*,267.6490299
255,2,255,https://hk.centanet.com/findproperty/centadata-details/%E5%A4%9A%E5%96%9C%E5%A4%A7%E5%BB%88_2-MLXHIHLEHZ,多喜大廈,7887,22.31735,114.2163,Dor Hei Building - Podium,多喜大廈 - 平台,0,1500.8,1942.8,3443.6,1,52,21250,0.4,1,0,0,1,0,840326,819820,觀塘區,Kwun Tong,*,95.22781642
256,1,256,https://hk.centanet.com/findproperty/centadata-details/%E6%96%87%E8%8B%91%E6%A8%93_2-MMSTIHDAHN,文苑樓,7895,22.30752,114.16712,MAN YUEN BUILDING,文苑樓,0,28838,2451.7,31289.7,19,60,16480,0.2,0,2,0,0,0,835270,818733,油尖旺區,Yau Tsim Mong,***,133.9535143
257,1,257,https://hk.centanet.com/findproperty/centadata-details/%E5%B0%9A%E5%9F%8E_2-BSSPWPPEPW,尚城,7909,22.43381,114.00178,UPTOWN,尚城,734,49870.2,415,50285.2,20,13,40000,0.6,1,0,0,0,0,818243,832725,元朗區,Yuen Long,*,128.8787152
258,1,258,https://hk.centanet.com/findproperty/centadata-details/%E6%96%B0%E9%BA%97%E6%99%AF%E5%94%90%E6%A8%93_2-EYGGWPWXPK,新麗景唐樓,7910,22.29016,114.21002,LAI KING MANSION,麗景大廈,0,8618,588.9,9206.9,12,63,30820,0.2,1,0,0,1,0,839674,816804,東區,Eastern,*,157.919689
259,1,259,https://hk.centanet.com/findproperty/centadata-details/%E8%A3%95%E6%97%BA%E5%A4%A7%E5%BB%88_2-UURSFRRXRJ,裕旺大廈,7914,22.31696,114.17144,YUE WONG BUILDING,裕旺大廈,0,1938.7,204.3,2143,12,59,19640,0.3,1,0,1,1,0,835709,819771,油尖旺區,Yau Tsim Mong,*,60.82109457
260,1,260,https://hk.centanet.com/findproperty/centadata-details/%E6%9D%B1%E7%99%BC%E5%A4%A7%E5%BB%88_2-TNSNTHZXHD,東發大廈,7917,22.29038,114.20019,TUNG FAT BUILDING BLOCK A,東發大廈A座,0,33668,2672,36340,16,61,22170,0.05,1,0,0,1,0,838671,816830,東區,Eastern,*,96.44023117
261,1,261,https://hk.centanet.com/findproperty/centadata-details/%E9%A6%99%E6%B8%AF%E9%BB%83%E9%87%91%E6%B5%B7%E5%B2%B8_2-SUQRFROHRD,香港黃金海岸,7917,22.3723,113.99224,NO SPECIFIC NAME,沒有名稱,0,0,5103.1,5103.1,2,32,41000,2.5,0,0,0,0,1,0,0,屯門區,Tuen Mun, ,131.3886978
262,1,262,https://hk.centanet.com/findproperty/centadata-details/%E8%8F%AF%E8%B1%90%E5%A4%A7%E5%BB%88_2-UUDVQRUJRD,華豐大廈,7917,22.3138,114.22765,HWA FUNG MANSION,華豐大廈,0,3895.1,0,3895.1,14,61,28500,0.6,1,0,0,0,0,841501,819421,觀塘區,Kwun Tong,*,73.7286387
263,1,263,https://hk.centanet.com/findproperty/centadata-details/%E5%AE%89%E7%BE%8E%E5%A4%A7%E5%BB%88_2-EEKEGPDRPW,安美大廈,7919,22.27121,114.18501,BONNY VIEW HOUSE,安美大廈,0,2832,727,3559,11,53,69000,1.5,1,0,0,0,0,837094,814707,灣仔區,Wan Chai,*,109.7645249
264,1,264,https://hk.centanet.com/findproperty/centadata-details/%E8%8C%B5%E6%80%A1%E8%8A%B1%E5%9C%92_2-DJVOQRSXRQ,茵怡花園,7921,22.32217,114.25582,VERBENA HEIGHTS - PODIUM,茵怡花園 - 平台,2865,141132,6076,147208,3,28,33600,0.3,1,0,0,1,1,844397,820325,西貢區,Sai Kung,*,799.303023
265,1,265,https://hk.centanet.com/findproperty/centadata-details/%E8%90%AC%E5%B9%B4%E6%88%B2%E9%99%A2%E5%A4%A7%E5%BB%88_2-EYGYWPWAPS,萬年戲院大廈,7926,22.347,114.20218,NO SPECIFIC NAME,松齡（萬年）護老中心,0,10218.3,4601.2,14819.5,5,51,20600,1.5,1,0,0,0,0,0,0,黃大仙區,Wong Tai Sin, ,107.9070486
266,1,266,https://hk.centanet.com/findproperty/centadata-details/%E6%82%85%E8%BC%9D%E5%A4%A7%E5%BB%88_2-USQFQRCVRO,悅輝大廈,7928,22.31991,114.18732,YUET FAI HOUSE,悅輝大廈,0,1526,112.1,1638.1,11,59,29000,0.2,1,0,0,1,0,837339,820103,九龍城區,Kowloon City,*,53.90710727
267,2,267,https://hk.centanet.com/findproperty/centadata-details/%E6%80%A1%E5%B3%B0%E5%9C%92_2-VDROURUYRU,怡峰園,7932,22.36181,114.1388,YUET FUNG HOUSE,悅峰閣,700,41882.6,78.3,41960.9,37,25,17790,2.5,1,0,0,1,0,832345,824739,葵青區,Kwai Tsing,*,175.3124038
268,1,268,https://hk.centanet.com/findproperty/centadata-details/%E5%A4%A7%E8%88%88%E5%A4%A7%E5%BB%88_2-VCFCFRJJRO,大興大廈,7932,22.28803,114.1445,TAI HING BUILDING,大興大廈,0,2893.6,1148.2,4041.8,13,58,25000,0.05,1,0,0,1,0,832932,816564,中西區,Central and Western,*,81.44188381
269,1,269,https://hk.centanet.com/findproperty/centadata-details/%E8%91%B5%E6%B6%8C%E5%A4%A7%E5%BB%88_2-DMLTTHMJHI,葵涌大廈,7945,22.3645,114.13624,KWAI CHUNG BUILDING,葵涌大廈,0,16016.2,2579.4,18595.6,25,50,18800,1.5,1,2,1,1,0,832089,825026,葵青區,Kwai Tsing,***,177.9617535
270,2,270,https://hk.centanet.com/findproperty/centadata-details/%E7%A5%A5%E5%92%8C%E8%8B%91_2-EWYWBPSJPK,祥和苑,7947,22.31851,114.22633,WO KWAN HOUSE BLOCK A,和均閣Ａ座,0,82542.9,6517.7,89060.6,41,40,27000,0.8,1,0,0,1,1,841364,819946,觀塘區,Kwun Tong,*,138.5132449
271,1,271,https://hk.centanet.com/findproperty/centadata-details/%E9%87%91%E5%8B%B3%E5%A4%A7%E5%BB%88_2-EESYPPKXPB,金勳大廈,7947,22.30826,114.17108,HONOUR HOUSE,金勳大廈,0,7512.4,2348.1,9860.5,19,55,16400,0.3,1,2,0,1,0,835672,818818,油尖旺區,Yau Tsim Mong,***,101.5378709
272,1,272,https://hk.centanet.com/findproperty/centadata-details/%E6%B5%B7%E9%83%BD%E6%A8%93_2-SSYKGPPOPS,海都樓,7962,22.28464,114.13156,HOI TO BUILDING,海都樓,0,11111.2,2605.1,13716.3,17,58,22490,0.2,1,0,0,1,0,831603,816189,中西區,Central and Western,*,159.3531289
273,1,273,https://hk.centanet.com/findproperty/centadata-details/%E5%8D%97%E6%96%B9%E5%A4%A7%E5%BB%88_2-SBKBPPBAPS,南方大廈,7973,22.29008,114.19479,SOUTHERN BUILDING,南方大廈,0,17271.1,1407.5,18678.6,20,62,18420,0.2,1,1,0,1,0,838112,816787,東區,Eastern,**,150.1413098
274,1,274,https://hk.centanet.com/findproperty/centadata-details/%E4%BF%9D%E8%8F%AF%E5%A4%A7%E5%BB%88_2-EGYAGPPAPB,保華大廈,7989,22.23852,114.19722,REPULSE BAY TOWERS,保華大廈,0,17952.5,0,17952.5,15,61,81000,4,1,0,0,0,0,838359,811084,南區,Southern,*,199.7039689
275,1,275,https://hk.centanet.com/findproperty/centadata-details/%E9%B9%BF%E9%B3%B4%E8%A1%9727%E8%99%9F_2-USRDFRSSRU,鹿鳴街27號,7990,22.32207,114.19172,NO SPECIFIC NAME,沒有名稱,0,1816.2,198.1,2014.3,8,64,18520,0.6,0,0,1,0,0,0,0,九龍城區,Kowloon City, ,31.22772684
276,1,276,https://hk.centanet.com/findproperty/centadata-details/%E9%B3%B3%E5%BE%B7%E9%81%9331-33%E8%99%9F_2-MSMNTHZRHT,鳳德道31-33號,7992,22.3434,114.19672,NO SPECIFIC NAME,濟廬,0,461.4,235.2,696.6,6,55,25000,0.3,0,0,0,0,0,0,0,黃大仙區,Wong Tai Sin, ,39.08319965
277,1,277,https://hk.centanet.com/findproperty/centadata-details/%E5%94%90%E6%98%8E%E8%8B%91_2-XINMIHZEHD,唐明苑,7993,22.30793,114.25649,TONG FAI HOUSE,唐輝閣,0,48620,324.3,48944.3,41,26,32750,0.4,1,0,0,1,1,844471,818775,西貢區,Sai Kung,*,315.3126884
278,1,278,https://hk.centanet.com/findproperty/centadata-details/%E5%8D%93%E6%BF%A4%E8%BB%92_2-WGPYPPDVPE,卓濤軒,8000,22.26344,114.00177,NO SPECIFIC NAME,沒有名稱,0,0,1481.3,1481.3,1,0,19000,0,1,0,0,0,0,818220,813868,離島區,Islands,*,114.794083
279,1,279,https://hk.centanet.com/findproperty/centadata-details/%E5%AF%B6%E5%85%89%E5%A4%A7%E5%BB%88_2-MZLMTHMVHT,寶光大廈,8000,22.27479,114.1575,BO KWONG APARTMENTS,寶光大廈,0,1557,0,1557,6,61,115000,1,0,0,0,1,0,834267,815101,中西區,Central and Western,*,74.12101794
280,1,280,https://hk.centanet.com/findproperty/centadata-details/%E8%8F%AF%E9%83%BD%E8%8A%B1%E5%9C%92_2-BGAKGPSJPS,華都花園,8010,22.39183,113.97804,WALDORF GARDEN - PODIUM,華都花園 - 平台,1032,52286.5,21812.4,74098.9,3,0,27720,0.5,1,0,0,0,0,815795,828032,屯門區,Tuen Mun,*,351.5022849
281,1,281,https://hk.centanet.com/findproperty/centadata-details/%E9%A0%86%E7%B7%BB%E8%8B%91_2-EWPPGPGXPE,順緻苑,8018,22.33232,114.22591,SHUN SHING HOUSE,順成閣,0,7757.7,32.7,7790.4,17,45,35000,2,1,0,0,0,1,841320,821473,觀塘區,Kwun Tong,*,114.9348004
282,1,282,https://hk.centanet.com/findproperty/centadata-details/%E6%A8%B9%E5%BE%B7%E6%A8%93_2-GYPABPYXPS,樹德樓,8023,22.37456,114.1783,SHU TAK BUILDING,樹德樓,0,1273.7,440.2,1713.9,6,54,23000,0.05,0,0,0,1,0,836414,826154,沙田區,Sha Tin,*,72.44819663
283,2,283,https://hk.centanet.com/findproperty/centadata-details/%E9%B9%BF%E8%8B%91_2-BGSKGPSXSS,鹿苑,8039,22.40134,113.97813,LOOK YUEN,鹿苑,76,3175.9,1529.6,4705.5,13,41,18500,0.05,1,0,0,1,0,815800,829128,屯門區,Tuen Mun,*,138.2499725
284,1,284,https://hk.centanet.com/findproperty/centadata-details/%E9%B3%B3%E7%A6%AE%E8%8B%91_2-MSZHTHZAHT,鳳禮苑,8062,22.34434,114.2025,FUNG HEI HOUSE,鳳禧閣,0,23817.8,28.6,23846.4,36,27,20750,0.7,1,0,0,1,0,838909,822806,黃大仙區,Wong Tai Sin,*,199.3525157
285,2,285,https://hk.centanet.com/findproperty/centadata-details/%E5%98%89%E5%96%9C%E5%88%A9%E5%A4%A7%E5%BB%88_2-BGEKGPSVPS,嘉喜利大廈,8070,22.38844,113.98001,KAI HEI LAND BUILDING,嘉喜利大廈,168,6594,3212.7,9806.7,24,42,17490,0.9,1,0,0,0,0,815992,827709,屯門區,Tuen Mun,*,146.0247029
286,1,286,https://hk.centanet.com/findproperty/centadata-details/%E5%AE%8F%E6%99%AF%E8%8A%B1%E5%9C%92_2-UFRRFRSYRO,宏景花園,8071,22.34177,114.20804,GRAND VIEW GARDEN COMMERCIAL AND CAR PARK BLOCK,宏景花園綜合大樓,0,0,2929.6,2929.6,9,25,33500,1,1,0,0,1,1,0,0,黃大仙區,Wong Tai Sin, ,391.134737
287,1,287,https://hk.centanet.com/findproperty/centadata-details/%E6%B0%B8%E6%98%8E%E5%A4%A7%E5%BB%88_2-MXIDTHLEHX,永明大廈,8085,22.32693,114.16227,WING MING BUILDING,永明大廈,0,2360.6,747.2,3107.8,14,58,16190,0.4,1,1,0,1,0,834763,820878,深水埗區,Sham Shui Po,**,69.89713219
288,1,288,https://hk.centanet.com/findproperty/centadata-details/%E6%96%B0%E5%AF%B6%E5%A4%A7%E5%BB%88_2-MXMHTHXAHZ,新寶大廈,8086,22.50424,114.12794,SUNBO BUILDING,新寶大廈,15,788,252.4,1040.4,6,37,17650,0.4,1,0,0,0,0,831236,840519,北區,North,*,71.00621399
289,1,289,https://hk.centanet.com/findproperty/centadata-details/%E5%BE%97%E5%8B%9D%E5%A4%A7%E6%A8%93_2-SBAAGPEAPA,得勝大樓,8094,22.29199,114.19945,DAK SHING BUILDING,得勝大廈,0,4148,928,5076,9,62,25000,0.05,0,1,0,1,0,838590,817018,東區,Eastern,**,86.28460711
290,1,290,https://hk.centanet.com/findproperty/centadata-details/%E6%88%90%E5%AE%89%E6%A8%93_2-AEBKPPAXPK,成安樓,8097,22.28107,114.22083,SHING ON BUILDING,成安大樓,0,2095.4,322.8,2418.2,9,60,20700,0.2,0,0,0,1,0,840794,815804,東區,Eastern,*,95.16183585
291,2,291,https://hk.centanet.com/findproperty/centadata-details/%E9%81%A0%E6%9D%B1%E7%99%BC%E5%B1%95%E5%85%83%E6%9C%97%E5%A4%A7%E5%BB%88_2-NLSXIHZXHT,遠東發展元朗大廈,8111,22.44514,114.03206,FAR EAST CONSORTIUM YUEN LONG BUILDING,遠東發展元朗大廈,0,5772.3,1913.5,7685.8,26,49,21250,0.2,1,0,0,0,0,821371,833975,元朗區,Yuen Long,*,110.761324
292,1,292,https://hk.centanet.com/findproperty/centadata-details/%E5%BA%B7%E7%9B%88%E8%8B%91_2-EWYYWPWXPD,康盈苑,8139,22.30809,114.23816,HONG YING COURT,康盈苑,0,43061.3,920.8,43982.1,35,33,17900,0.5,1,0,0,1,0,842597,818795,觀塘區,Kwun Tong,*,239.3785263
293,1,293,https://hk.centanet.com/findproperty/centadata-details/%E9%80%B8%E9%9B%85%E8%8B%91_2-GWPPBPGRPB,逸雅苑,8147,22.44276,114.16736,YAT YAN HOUSE,逸欣閣,1224,67048,20,67068,35,33,22950,0.5,1,0,0,0,1,835288,833712,大埔區,Tai Po,*,181.8252066
294,2,294,https://hk.centanet.com/findproperty/centadata-details/%E6%81%86%E7%99%BC%E6%A8%93_2-VCUDURRXRO,恆發樓,8148,22.44422,114.03165,HANG FAT MANSION,恒發樓,0,2058.9,1019.6,3078.5,15,40,24200,0.1,1,0,0,0,0,821317,833876,元朗區,Yuen Long,*,72.89556639
295,1,295,https://hk.centanet.com/findproperty/centadata-details/%E6%99%AF%E6%A5%AD%E5%A4%A7%E5%BB%88_2-UDFRURFXRJ,景業大廈,8153,22.33059,114.16519,KING YIP BUILDING,景業大廈,0,3006.3,710.6,3716.9,12,61,22320,0.2,1,1,1,1,0,835065,821283,深水埗區,Sham Shui Po,**,103.5393633
296,1,296,https://hk.centanet.com/findproperty/centadata-details/%E4%BB%81%E6%84%9B%E5%A4%A7%E6%A8%93_2-UFFFQRFXRS,仁愛大樓,8169,22.33493,114.19483,YAN OI BUILDING,仁愛大樓,0,11443.1,1590.1,13033.2,15,60,18800,0.9,1,1,0,1,0,838118,821761,黃大仙區,Wong Tai Sin,**,154.5864158
297,1,297,https://hk.centanet.com/findproperty/centadata-details/%E7%BF%A0%E6%BF%A4%E9%96%A3_2-AEASBPPSPA,翠濤閣,8171,22.37024,114.09865,GREENVIEW COURT SHOPPING CENTRE - PODIUM,翠濤閣商場 - 平台,792,16103.5,3633.6,19737.1,5,42,42880,1.5,1,0,0,1,0,828202,825658,荃灣區,Tsuen Wan,*,287.5431577
298,1,298,https://hk.centanet.com/findproperty/centadata-details/%E6%96%B0%E9%83%BD%E5%9F%8E%E5%A4%A7%E5%BB%88_2-OVQOURDORQ,新都城大廈,8185,22.2906,114.19947,METROPOLE BUILDING - PODIUM,新都城大廈 - 平台,0,93958.5,23221.3,117179.8,2,50,17500,0.1,1,2,0,1,1,838575,816868,東區,Eastern,***,289.7615405
299,1,299,https://hk.centanet.com/findproperty/centadata-details/%E5%BC%BC%E8%A1%9731-33%E8%99%9F_2-EEGAPPSSPS,弼街31-33號,8198,22.3219,114.16719,NO SPECIFIC NAME,沒有名稱,0,1833.6,212,2045.6,8,63,15900,0.3,0,2,1,0,0,835271,820315,油尖旺區,Yau Tsim Mong,***,83.44424652
300,1,300,https://hk.centanet.com/findproperty/centadata-details/%E9%87%91%E5%AF%B6%E5%A4%A7%E5%BB%88_2-MMZXZHLXHN,金寶大廈,8211,22.2814,114.22274,GOLDEN MANSION - PODIUM,金寶大廈 - 平台,84,3502.8,939.4,4442.2,1,46,22000,0.05,1,0,0,1,0,840996,815839,東區,Eastern,*,91.34719086
301,1,301,https://hk.centanet.com/findproperty/centadata-details/%E8%91%B5%E6%B6%8C%E5%BF%97%E6%98%8C%E6%A8%93_2-QUVDFRCXRJ,葵涌志昌樓,8240,22.36472,114.13653,KWAI CHUNG GEE CHANG HOUSE,葵涌志昌樓,0,2971.6,1116.6,4088.2,23,51,18800,1.5,1,0,1,1,0,832115,825069,葵青區,Kwai Tsing,*,79.1602157
302,1,302,https://hk.centanet.com/findproperty/centadata-details/%E7%91%9E%E5%92%8C%E5%A4%A7%E5%BB%88_2-EWEWBPESPK,瑞和大廈,8247,22.31672,114.22574,SHUI WO BUILDING,瑞和大廈,0,5221.4,1269.7,6491.1,22,55,20370,0.7,1,0,0,1,0,841299,819742,觀塘區,Kwun Tong,*,129.6381972
303,2,303,https://hk.centanet.com/findproperty/centadata-details/%E5%8A%9F%E6%A8%82%E5%A4%A7%E5%BB%88_2-MLXMIHMAHZ,功樂大廈,8260,22.31826,114.21956,KUNG LOK BUILDING BLOCK A,功樂大廈Ａ座,0,7001.4,0,7001.4,14,50,37000,1.5,1,0,0,1,0,840662,819914,觀塘區,Kwun Tong,*,81.79605513
304,1,304,https://hk.centanet.com/findproperty/centadata-details/%E5%BD%A9%E6%98%8E%E8%8B%91_2-DJVVURSXRQ,彩明苑,8272,22.30685,114.25237,CHOI MING SHOPPING CENTRE,彩明商場,0,0,18370,18370,4,0,26140,0.6,0,0,0,0,0,0,0,西貢區,Sai Kung, ,374.3554268
305,1,305,https://hk.centanet.com/findproperty/centadata-details/%E5%A4%AA%E5%AE%89%E6%A8%93_2-SGDGWPBYPS,太安樓,8275,22.28443,114.14852,TAI ON HOUSE,太安樓,8,680.6,241.3,921.9,5,42,45000,0.5,0,0,0,0,0,833346,816172,中西區,Central and Western,*,36.88671365
306,1,306,https://hk.centanet.com/findproperty/centadata-details/%E5%95%9F%E9%81%8B%E5%A4%A7%E5%BB%88_2-MMINTHTAHT,啟運大廈,8277,22.31911,114.16699,KAI WAN MANSION,啟運大廈,0,3634,263,3897,15,55,21250,0.2,1,0,0,1,0,835245,820011,油尖旺區,Yau Tsim Mong,*,63.13149698
307,1,307,https://hk.centanet.com/findproperty/centadata-details/%E6%BE%A4%E8%B1%90%E5%A4%A7%E5%BB%88_2-MMMTIHNXHX,澤豐大廈,8287,22.30985,114.17151,CHAK FUNG HOUSE,澤豐大廈,0,3965.9,582.3,4548.2,16,58,87000,0.2,0,0,0,0,0,0,0,油尖旺區,Yau Tsim Mong, ,53.87229124
308,2,308,https://hk.centanet.com/findproperty/centadata-details/%E6%B5%B7%E7%BF%A0%E8%8A%B1%E5%9C%92_2-NXMSIHSXHT,海翠花園,8292,22.37271,113.96608,PIERHEAD GARDEN TOWER 2,海翠花園第二座,1432,91438.3,10081.5,101519.8,32,36,36000,0.05,1,0,0,0,1,814562,825964,屯門區,Tuen Mun,*,160.4116436
309,1,309,https://hk.centanet.com/findproperty/centadata-details/%E5%BE%A1%E6%99%AF%E5%9C%92_2-BWAAWPGXSB,御景園,8295,22.44111,114.01701,SCENIC GARDENS,御景園,474,30980.9,865.9,31846.8,14,27,47000,0.7,1,0,0,1,0,819812,833526,元朗區,Yuen Long,*,169.0530551
310,1,310,https://hk.centanet.com/findproperty/centadata-details/%E6%84%89%E6%99%AF%E7%81%A3_3-LIDHTHXXHT,愉景灣,8305,22.29446,114.01662,DISCOVERY BAY FIRE STATION,愉景灣消防局,0,0,1831.4,1831.4,4,43,57160,4.5,0,0,0,0,1,0,0,離島區,Islands, ,114.0823275
311,1,311,https://hk.centanet.com/findproperty/centadata-details/%E9%87%91%E7%9F%B3%E6%A8%93_2-QURSFRCXRJ,金石樓,8312,22.27369,114.17405,KAM SEK BUILDING,金石樓,0,1173.1,183.5,1356.6,8,59,20800,0.4,0,0,0,1,0,835982,814985,灣仔區,Wan Chai,*,59.12754584
312,1,312,https://hk.centanet.com/findproperty/centadata-details/%E8%83%A1%E6%97%A5%E7%9A%86%E5%A4%A7%E5%BB%88_2-TNXIZHMVHD,胡日皆大廈,8315,22.29167,114.19788,FOO YET KAI BUILDING,胡日皆大廈,0,4914,2250,7164,24,44,17720,0.2,1,0,1,0,0,838428,816980,東區,Eastern,*,122.7438912
313,1,313,https://hk.centanet.com/findproperty/centadata-details/%E5%A4%A9%E5%AF%8C%E5%A4%A7%E5%BB%88_2-EKKWBPBAPA,天富大廈,8316,22.31162,114.18743,NO SPECIFIC NAME,天富大廈,0,2602.7,942.3,3545,13,59,20000,0.5,1,1,0,1,0,837355,819181,九龍城區,Kowloon City,**,77.37835935
314,1,314,https://hk.centanet.com/findproperty/centadata-details/%E9%8C%A6%E9%9E%8D%E8%8B%91_2-DFJJURSHFV,錦鞍苑,8318,22.41629,114.22661,YUK ON HOUSE,玉鞍閣,350,21252,24,21276,36,37,26290,0.7,1,0,0,0,0,841390,830771,沙田區,Sha Tin,*,190.1365799
315,2,315,https://hk.centanet.com/findproperty/centadata-details/%E7%A6%8F%E6%98%8E%E5%A4%A7%E5%BB%88_2-EEWDBPESPS,福明大廈,8333,22.32134,114.16444,Fuk Ming Building  Podium,福明大廈- 平台,0,6460.3,2046.5,8506.8,2,50,16300,0.6,1,0,0,1,0,834957,820283,油尖旺區,Yau Tsim Mong,*,164.8451162
316,1,316,https://hk.centanet.com/findproperty/centadata-details/%E5%BA%B7%E6%A8%82%E5%A4%A7%E5%BB%88_2-MMIITHZRHN,康樂大廈,8333,22.2751,114.15824,HONG LOK MANSION,康樂大廈,0,5607,0,5607,7,68,115000,1,1,0,0,1,0,834349,815147,中西區,Central and Western,*,239.2319945
317,1,317,https://hk.centanet.com/findproperty/centadata-details/%E5%A4%A7%E5%8D%97%E8%A1%97119%E8%99%9F_2-MMXZIHSSHT,大南街119號,8333,22.32573,114.16486,NO SPECIFIC NAME,沒有名稱,8,186.8,219.6,406.4,6,41,12490,0.4,0,0,1,0,0,835031,820745,油尖旺區,Yau Tsim Mong,*,44.88798597
318,1,318,https://hk.centanet.com/findproperty/centadata-details/%E9%9B%85%E7%8F%8A%E5%9C%92_2-VCCSQROORV,雅珊園,8335,22.43414,113.99645,ASTER COURT - PODIUM,雅珊園 - 平台,207,12114.4,4721.7,16836.1,2,33,31000,0.2,1,0,0,1,0,817675,832808,元朗區,Yuen Long,*,234.944907
319,1,319,https://hk.centanet.com/findproperty/centadata-details/%E6%B5%B7%E6%82%85%E8%8A%B1%E5%9C%92_2-ABBEGPWXPP,海悅花園,8339,22.35367,114.10827,COMMERCIAL COMPLEX,海悅花園 商場街市,0,0,1029.7,1029.7,2,33,27200,3,0,0,0,1,0,0,0,葵青區,Kwai Tsing, ,108.4302853
320,1,320,https://hk.centanet.com/findproperty/centadata-details/%E5%BA%B7%E6%9E%97%E8%8B%91_2-GYAPBPDJPB,康林苑,8354,22.3804,114.2183,YUEN LAM HOUSE,康林苑Ｂ座,0,20781.2,0,20781.2,36,35,28810,2,1,0,0,0,1,840534,826802,沙田區,Sha Tin,*,190.9589709
321,1,321,https://hk.centanet.com/findproperty/centadata-details/%E9%9D%92%E8%8F%AF%E8%8B%91_2-ABYWPPPVPP,青華苑,8363,22.34895,114.09793,WAH WOON HOUSE,華奐閣,560,25331.3,158.3,25489.6,36,39,25420,4,1,0,0,1,1,828135,823321,葵青區,Kwai Tsing,*,197.2024716
322,2,322,https://hk.centanet.com/findproperty/centadata-details/%E6%B0%B8%E8%88%88%E5%A4%A7%E6%A8%93_2-TXHIIHIRHT,永興大樓,8376,22.27778,114.22667,WING HING BUILDING,永興大樓,46,1879.1,222,2101.1,24,46,34250,0.2,1,0,0,1,0,841400,815437,東區,Eastern,*,46.22895163
323,3,323,https://hk.centanet.com/findproperty/centadata-details/%E6%81%86%E9%A0%86%E5%9C%92_2-VDORURUHRU,恆順園,8380,22.38805,113.98105,HANDSOME COURT BLOCK 1,恒順園第１座,852,67917.8,1047.6,68965.4,22,34,32210,0.9,1,0,0,1,0,816104,827657,屯門區,Tuen Mun,*,142.1831555
324,1,324,https://hk.centanet.com/findproperty/centadata-details/%E5%83%91%E7%99%BC%E5%A4%A7%E5%BB%88_2-MZLDZHZAHM,僑發大廈,8413,22.28659,114.1464,KIU FAT BUILDING,僑發大廈,0,10236.2,5112.7,15348.9,26,50,33000,0.3,1,0,0,1,0,833122,816383,中西區,Central and Western,*,163.6280804
325,1,325,https://hk.centanet.com/findproperty/centadata-details/%E5%92%B8%E7%BE%8E%E9%A0%93%E5%A4%A7%E5%BB%88_2-UUURFROHRF,咸美頓大廈,8418,22.31454,114.16946,HAMILTON BUILDING,咸美頓大廈,0,1516,206.4,1722.4,10,55,18500,0.1,1,0,1,1,0,835504,819505,油尖旺區,Yau Tsim Mong,*,75.80839433
326,1,326,https://hk.centanet.com/findproperty/centadata-details/%E6%B2%B3%E8%83%8C%E8%A1%9754%E8%99%9F_2-AEWYGPAXPK,河背街54號,8424,22.36864,114.11537,NO SPECIFIC NAME,沒有名稱,0,3210.5,796.1,4006.6,6,63,19580,0.6,0,1,1,1,0,829935,825504,荃灣區,Tsuen Wan,**,49.19109125
327,1,327,https://hk.centanet.com/findproperty/centadata-details/%E5%BB%A3%E6%98%8E%E8%8B%91_2-GDYYWPDRPA,廣明苑,8425,22.31197,114.25976,KWONG CHEUNG HOUSE,廣昌閣,0,50782,480,51262,39,27,23890,0.6,1,0,0,1,1,844811,819223,西貢區,Sai Kung,*,246.4954966
328,1,328,https://hk.centanet.com/findproperty/centadata-details/%E5%A4%A7%E5%90%8C%E6%96%B0%E9%82%A8_2-MMXNIHLYHT,大同新邨,8428,22.32169,114.16149,TAI YAU BUILDING,大有樓,0,5284.6,1816.5,7101.1,14,50,17630,0.5,1,1,0,0,1,834680,820298,油尖旺區,Yau Tsim Mong,**,131.1347002
329,1,329,https://hk.centanet.com/findproperty/centadata-details/%E8%90%AC%E5%92%8C%E8%8A%B1%E5%9C%92%E5%A4%A7%E5%BB%88_2-UCJJFRCSRS,萬和花園大廈,8440,22.31276,114.22854,MAN WO GARDEN MANSION,萬和花園大廈,0,17647.5,1486.4,19133.9,12,56,27550,0.5,1,0,0,1,0,841586,819324,觀塘區,Kwun Tong,*,320.080772
330,2,330,https://hk.centanet.com/findproperty/centadata-details/%E6%96%87%E5%AE%89%E6%A8%93_2-OQRQFRJERU,文安樓,8451,22.27678,114.17673,MAN ON HOUSE BLOCK B,文安樓B座,0,7838.5,2104.2,9942.7,22,47,21250,0.4,1,0,0,0,0,836251,815324,灣仔區,Wan Chai,*,75.1966969
331,3,331,https://hk.centanet.com/findproperty/centadata-details/%E5%90%88%E5%92%8C%E5%A4%A7%E5%BB%88_2-EWBWBPSSPK,合和大廈,8459,22.31706,114.22633,HOPEWELL HOUSE,合和大廈,0,15087,2428.9,17515.9,21,57,20370,0.7,1,2,0,1,0,841359,819776,觀塘區,Kwun Tong,***,260.0834608
332,2,332,https://hk.centanet.com/findproperty/centadata-details/%E5%BE%A1%E8%B1%AA%E5%B1%B1%E8%8E%8A_2-BWBEWPGXPB,御豪山莊,8461,22.4415,114.01717,PARK ROYALE,御豪山莊,680,49075.7,1831.7,50907.4,12,27,47000,0.6,1,0,0,1,0,819826,833573,元朗區,Yuen Long,*,148.6155254
333,1,333,https://hk.centanet.com/findproperty/centadata-details/%E6%BC%81%E5%AE%89%E8%8B%91_2-SDDDWPWAPK,漁安苑,8476,22.24295,114.1563,NGAN ON HOUSE,銀安閣,0,15076.8,29,15105.8,35,36,33500,0.05,1,0,0,1,1,834146,811582,南區,Southern,*,132.8330086
334,1,334,https://hk.centanet.com/findproperty/centadata-details/%E8%91%B5%E8%B3%A2%E8%8B%91_2-DMDHTHXOHX,葵賢苑,8479,22.36992,114.12541,KWAI YIN COURT - KWAI YEE HOUSE,葵義閣,700,42616,150.7,42766.7,36,31,20270,0.05,1,0,0,1,0,830967,825638,葵青區,Kwai Tsing,*,179.5313835
335,2,335,https://hk.centanet.com/findproperty/centadata-details/%E5%B1%AF%E9%96%80%E8%8A%B1%E5%9C%92_2-BGEKGPSRPS,屯門花園,8481,22.38907,113.97871,TUEN MUN FA YUEN,屯門花園,136,5009.6,2442.5,7452.1,20,43,17490,0.7,1,0,0,0,0,815858,827774,屯門區,Tuen Mun,*,134.391916
336,2,336,https://hk.centanet.com/findproperty/centadata-details/%E7%9B%8A%E8%BC%9D%E5%A4%A7%E5%BB%88_2-VCJRURDSRV,益輝大廈,8490,22.44108,114.02798,YICK FAI BUILDING,益輝大廈,128,5139.1,1062.3,6201.4,17,38,21650,0.5,1,0,0,1,0,820942,833524,元朗區,Yuen Long,*,122.8479469
337,2,337,https://hk.centanet.com/findproperty/centadata-details/%E5%8D%97%E5%BA%B7%E5%A4%A7%E5%BB%88_2-EWWGGPSVPK,南康大廈,8492,22.31827,114.22049,NAM HONG BUILDING BLOCK A,南康大廈Ａ座,0,11676.1,4989.2,16665.3,23,48,37000,1,1,0,0,0,0,840764,819918,觀塘區,Kwun Tong,*,76.98848355
338,1,338,https://hk.centanet.com/findproperty/centadata-details/%E6%B3%B0%E5%BA%B7%E6%A8%93_2-UCQQFRCORS,泰康樓,8514,22.31281,114.22676,TAI HONG BUILDING,泰康樓,0,7303.3,0,7303.3,10,54,29650,0.1,0,1,0,0,0,841408,819308,觀塘區,Kwun Tong,**,135.690138
339,1,339,https://hk.centanet.com/findproperty/centadata-details/%E7%81%A3%E6%99%AF%E6%A8%93_2-OSRUFRDSRD,灣景樓,8517,22.27938,114.18893,BAY VIEW SHOPPING ARCADE,灣景商場 (中國基督教播道會同福堂),0,33003,7492.5,40495.5,6,58,45000,0.5,1,0,0,1,0,0,0,灣仔區,Wan Chai, ,104.949959
340,1,340,https://hk.centanet.com/findproperty/centadata-details/%E4%BA%94%E8%81%AF%E5%A4%A7%E5%BB%88_2-MXTIZHISHX,五聯大廈,8523,22.32773,114.18713,YUE LUEN MANSION,沒有名稱,0,737,185.5,922.5,6,58,22230,0.5,0,1,0,1,0,837325,820967,九龍城區,Kowloon City,**,64.2562858
341,1,341,https://hk.centanet.com/findproperty/centadata-details/%E9%8C%A6%E8%B1%90%E8%8B%91_2-GYGGGPGXPB,錦豐苑,8549,22.42453,114.2262,KAM YUNG HOUSE,錦蓉閣,1824,144394,1495,145889,39,28,27460,0.6,1,0,0,1,1,841346,831687,沙田區,Sha Tin,*,230.6283354
342,2,342,https://hk.centanet.com/findproperty/centadata-details/%E6%9B%89%E6%98%8E%E9%96%A3_2-EWWKGPSJPK,曉明閣,8571,22.31771,114.23066,HIU MING COURT,曉明閣,552,29833.5,4731.9,34565.4,26,45,25500,1.5,1,0,0,0,0,841808,819850,觀塘區,Kwun Tong,*,154.1191143
343,2,343,https://hk.centanet.com/findproperty/centadata-details/%E5%AE%8F%E5%85%89%E6%A8%93_2-MLDNZHSYHT,宏光樓,8575,22.3259,114.21511,WANG KWONG BUILDING BLOCK B,宏光樓Ｂ座,648,27651.8,3762.3,31414.1,30,47,30000,0.3,1,0,0,0,0,840211,820763,觀塘區,Kwun Tong,*,153.0494023
344,2,344,https://hk.centanet.com/findproperty/centadata-details/%E5%AF%B6%E7%9F%B3%E6%88%B2%E9%99%A2%E5%A4%A7%E5%BB%88_2-EKYSGPBJPB,寶石戲院大廈,8582,22.30643,114.18601,LUX THEATRE BUILDING BLOCK A,寶石戲院大廈Ａ座,0,16421,4637.8,21058.8,16,54,19800,0.3,1,2,0,1,0,837207,818614,九龍城區,Kowloon City,***,130.1849008
345,1,345,https://hk.centanet.com/findproperty/centadata-details/%E5%AF%8C%E5%BA%B7%E8%8A%B1%E5%9C%92_2-XITHIHZJHD,富康花園,8584,22.31031,114.26172,DEBORAH ENGLISH KINDERGARTEN & INT'L PLAY SCHOOL,德寶英文幼稚園國際幼兒園,3966,231560,5806.5,237366.5,3,26,32710,0.4,1,0,0,0,1,0,0,西貢區,Sai Kung, ,143.6838706
346,1,346,https://hk.centanet.com/findproperty/centadata-details/%E7%9B%8A%E6%98%8C%E5%A4%A7%E5%BB%88_2-TNDMIHZXHX,益昌大廈,8605,22.28399,114.21231,YICK CHEONG BUILDING,益昌大廈,0,78564,10996,89560,20,52,24000,0.4,1,0,0,1,0,839921,816140,東區,Eastern,*,143.2169318
347,2,347,https://hk.centanet.com/findproperty/centadata-details/%E5%AE%89%E5%88%A9%E5%A4%A7%E5%BB%88_2-MSDNTHZAHT,安利大廈,8605,22.34351,114.19723,ON LEE BUILDING,安利大廈,0,7789.5,4041.3,11830.8,21,54,25000,0.4,1,0,0,0,0,838363,822712,黃大仙區,Wong Tai Sin,*,114.6277091
348,1,348,https://hk.centanet.com/findproperty/centadata-details/%E6%9C%9B%E9%9A%86%E5%A4%A7%E5%BB%88_2-SGKPPPKXPS,望隆大廈,8613,22.27826,114.2299,MONG LUNG HOUSE,望隆大廈,0,2079,218.6,2297.6,12,61,32100,0.05,1,0,0,1,0,841727,815487,東區,Eastern,*,61.46936845
349,2,349,https://hk.centanet.com/findproperty/centadata-details/%E6%8D%B7%E6%A6%AE%E6%A8%93_2-VCQSQRJXRO,捷榮樓,8617,22.44313,114.0285,CHIT WING BUILDING,捷榮樓,0,992.6,588.1,1580.7,8,50,15000,0.2,0,1,0,0,0,820992,833749,元朗區,Yuen Long,**,69.08364104
350,1,350,https://hk.centanet.com/findproperty/centadata-details/%E5%83%91%E6%98%8E%E5%A4%A7%E5%BB%88_2-UUVJUROXRU,僑明大廈,8621,22.32215,114.17037,KIU MING MANSION,僑明大廈,0,6866.4,702.1,7568.5,12,58,15000,0.2,0,0,0,1,0,835596,820348,油尖旺區,Yau Tsim Mong,*,65.73640902
351,1,351,https://hk.centanet.com/findproperty/centadata-details/%E8%90%AC%E7%A6%8F%E5%A4%A7%E5%BB%88_2-UCQFFRCERS,萬福大廈,8634,22.31327,114.22866,MAN FUK BUILDING,萬福大廈,0,15620.6,0,15620.6,15,54,27550,0.5,1,0,0,1,0,841614,819370,觀塘區,Kwun Tong,*,373.8578043
352,2,352,https://hk.centanet.com/findproperty/centadata-details/%E5%98%89%E6%B9%96%E5%B1%B1%E8%8E%8A_3-VOOFFRFARR,嘉湖山莊,8642,22.45208,114.00049,KINGSWOOD RICHLY PLAZA,嘉湖新北江商場,0,0,23587.9,23587.9,3,32,28940,0.3,1,0,0,0,1,0,0,元朗區,Yuen Long, ,522.0648682
353,2,353,https://hk.centanet.com/findproperty/centadata-details/%E9%BB%83%E5%9F%94%E5%94%90%E6%A8%93_2-USDCURVYRV,黃埔唐樓,8642,22.30669,114.18572,WHAMPOA BUILDING BLOCK A,黃埔唐樓Ａ座,0,22205.5,1986.4,24191.9,16,58,17290,0.3,1,1,0,0,0,837174,818628,九龍城區,Kowloon City,**,146.8770931
354,2,354,https://hk.centanet.com/findproperty/centadata-details/%E6%B5%AA%E7%BF%A0%E5%9C%92_3-AKPPGPGHPP,浪翠園,8644,22.36578,114.05525,SEA CREST VILLA PHASE II BLOCK 6,浪翠園二期第６座,224,19616.8,1269.5,20886.3,34,30,47700,0,1,0,0,0,1,823741,825184,荃灣區,Tsuen Wan,*,128.4969948
355,2,355,https://hk.centanet.com/findproperty/centadata-details/%E8%94%9A%E7%BF%A0%E8%8A%B1%E5%9C%92_2-BDWBGPEVPA,蔚翠花園,8645,22.49593,114.13291,Greenpark Villa - PODIUM,蔚翠花園 - 平台,552,41755.1,130.9,41886,2,31,43000,1.5,1,0,0,1,0,831737,839524,北區,North,*,580.046229
356,1,356,https://hk.centanet.com/findproperty/centadata-details/%E7%BE%8E%E6%96%B0%E5%A4%A7%E5%BB%88_2-GWBDBPEXPS,美新大廈,8647,22.28359,114.12784,MAY SUN BUILDING,美新大廈,0,6710,610,7320,12,60,45490,0.3,1,1,0,1,0,831217,816082,中西區,Central and Western,**,141.6089463
357,1,357,https://hk.centanet.com/findproperty/centadata-details/%E5%AE%8F%E8%B1%90%E5%A4%A7%E5%BB%88_2-NLNTZHHXHT,宏豐大廈,8649,22.315,114.18888,WONG FUNG BUILDING - PODIUM,宏豐大廈 - 平台,0,6356.2,1819.7,8175.9,2,51,30000,0.1,1,0,0,1,0,837492,819562,九龍城區,Kowloon City,*,140.2627167
358,2,358,https://hk.centanet.com/findproperty/centadata-details/%E5%83%91%E8%A3%95%E5%A4%A7%E6%A8%93_2-USOQQRSRRU,僑裕大樓,8658,22.29215,114.19758,GAIN YU BUILDING,橋裕大廈,60,3540.6,1484.2,5024.8,23,36,27490,0.3,1,0,0,1,0,838402,817025,東區,Eastern,*,73.47554983
359,1,359,https://hk.centanet.com/findproperty/centadata-details/%E5%98%89%E8%B1%90%E8%8A%B1%E5%9C%92_2-DEPPPPBJPE,嘉豐花園,8663,22.46417,114.19556,RICHWOOD PARK COMMERICAL COMPLEX,嘉豐花園商場,0,0,1725,1725,2,30,65000,5,1,0,0,1,0,0,0,大埔區,Tai Po, ,120.0776287
360,2,360,https://hk.centanet.com/findproperty/centadata-details/%E5%AF%8C%E5%BC%B7%E8%8B%91_2-UFCVFRRHRU,富強苑,8666,22.33935,114.18608,TAK YIN HOUSE,德賢閣,0,45105.8,15375,60480.8,36,26,20490,0.4,1,0,0,1,0,837216,822249,黃大仙區,Wong Tai Sin,*,149.4114706
361,2,361,https://hk.centanet.com/findproperty/centadata-details/%E8%8F%AF%E5%AF%B6%E5%A4%A7%E5%BB%88_2-UUOJURQARO,華寶大廈,8668,22.30638,114.18672,WAH BO BUILDING,華寶大廈,58,1514.3,249.9,1764.2,16,40,19800,0.2,1,0,0,1,0,837285,818598,九龍城區,Kowloon City,*,57.57716331
362,1,362,https://hk.centanet.com/findproperty/centadata-details/%E6%A6%AE%E8%8B%B1%E6%A8%93_2-EEYWGPYAPE,榮英樓,8678,22.32265,114.16969,Wing Ying Building,榮英樓,0,2416,336.2,2752.2,11,55,20160,0.1,1,0,0,1,0,835530,820405,油尖旺區,Yau Tsim Mong,*,82.32952087
363,1,363,https://hk.centanet.com/findproperty/centadata-details/%E9%8C%A6%E6%B3%B0%E8%8B%91_2-DFRVFROERV,錦泰苑,8681,22.40884,114.22194,KAM TAI SHOPPING CENTRE,錦泰商場,0,0,35481,35481,7,24,44600,1.5,1,0,0,0,1,0,0,沙田區,Sha Tin, ,320.1947438
364,1,364,https://hk.centanet.com/findproperty/centadata-details/%E9%87%91%E6%A9%8B%E5%A4%A7%E5%BB%88_2-UFJQQRQERS,金橋大廈,8681,22.33583,114.19554,CAMBRIDGE BUILDING,金橋大廈,0,3788,728.3,4516.3,6,61,20400,0.8,0,1,0,1,0,838189,821863,黃大仙區,Wong Tai Sin,**,160.7272802
365,1,365,https://hk.centanet.com/findproperty/centadata-details/%E6%98%8C%E9%81%A0%E5%A4%A7%E5%BB%88_2-UDQVURFRRV,昌遠大廈,8683,22.32864,114.15789,CHEONG YUEN BUILDING,昌遠大廈,0,7068.2,1653.6,8721.8,12,59,23250,0.4,1,2,0,1,0,834317,821070,深水埗區,Sham Shui Po,***,139.7173668
366,1,366,https://hk.centanet.com/findproperty/centadata-details/%E6%BB%BF%E5%88%A9%E5%A4%A7%E5%BB%88_2-VCVSURFXRO,滿利大廈,8690,22.44243,114.03126,MARIANA BUILDING - PODIUM,滿利大廈 - 平台,38,1550.8,695.6,2246.4,2,42,24200,0.3,1,0,0,1,0,821278,833680,元朗區,Yuen Long,*,78.62209447
367,2,367,https://hk.centanet.com/findproperty/centadata-details/%E8%8D%94%E7%81%A3%E8%8A%B1%E5%9C%92_2-UVUQFRCXRQ,荔灣花園,8699,22.34194,114.13611,LAI CHI KOK BAY GARDEN BLOCK C,荔灣花園Ｃ座,600,30182.7,7361.2,37543.9,20,47,33050,0.4,1,0,0,0,0,832069,822542,葵青區,Kwai Tsing,*,134.2512166
368,1,368,https://hk.centanet.com/findproperty/centadata-details/%E5%A4%A9%E9%A6%AC%E8%8B%91_2-EYPBBPPYPE,天馬苑,8718,22.34294,114.18624,TIN MA COURT CARPARK,天馬苑停車場,0,27320.4,22.8,27343.2,4,38,28200,0.8,0,0,0,1,1,0,0,黃大仙區,Wong Tai Sin, ,316.7521337
369,2,369,https://hk.centanet.com/findproperty/centadata-details/%E8%8F%AF%E6%B3%B0%E5%A4%A7%E5%BB%88_2-TXHIZHTXHN,華泰大廈,8719,22.26318,114.23593,WAH TAI MANSION,華泰大廈,0,6963.2,1538.8,8502,24,48,23770,0.05,1,0,0,1,0,842353,813827,東區,Eastern,*,82.20186164
370,1,370,https://hk.centanet.com/findproperty/centadata-details/%E5%85%86%E6%A5%AD%E5%A4%A7%E5%BB%88_2-MMHZZHTRHM,兆業大廈,8741,22.32314,114.17017,SIU YIP HOUSE,兆業大廈,0,1593.1,1039.9,2633,14,51,13500,0.1,1,0,1,1,0,835578,820457,油尖旺區,Yau Tsim Mong,*,78.70957379
371,1,371,https://hk.centanet.com/findproperty/centadata-details/%E8%81%AF%E5%BE%B7%E5%A4%A7%E5%BB%88_2-TTLZIHTHHM,聯德大廈,8745,22.2877,114.1435,LUEN TAK BUILDING,聯德大廈,0,3787.4,887.8,4675.2,14,57,23560,0.05,1,1,0,1,0,832827,816540,中西區,Central and Western,**,99.22538611
372,1,372,https://hk.centanet.com/findproperty/centadata-details/%E4%BB%81%E5%AE%89%E5%A4%A7%E5%BB%88_2-UUCSURURRJ,仁安大廈,8746,22.32211,114.18779,YAN ON BUILDING,仁安大廈,0,1774.3,161.3,1935.6,12,61,31850,0.5,1,1,0,1,0,837390,820344,九龍城區,Kowloon City,**,53.65436173
373,2,373,https://hk.centanet.com/findproperty/centadata-details/%E6%9D%B1%E5%A8%81%E5%A4%A7%E5%BB%88_2-ODJOFRVVRO,東威大廈,8747,22.27925,114.23033,EASTWAY TOWERS BLOCK 3,東威大廈第三座,528,24589.6,4296,28885.6,26,48,24500,0.05,1,0,0,0,0,841779,815604,東區,Eastern,*,108.8994338
374,1,374,https://hk.centanet.com/findproperty/centadata-details/%E5%98%89%E5%BC%B7%E8%8B%91_2-EYDDBPPVPE,嘉強苑,8751,22.34107,114.18429,KA WUI HOUSE,嘉匯閣,0,19504,129,19633,25,26,31000,0.7,1,0,0,1,0,837033,822443,黃大仙區,Wong Tai Sin,*,185.1315226
375,1,375,https://hk.centanet.com/findproperty/centadata-details/%E7%93%8A%E8%BB%92%E8%8B%91_2-EYPPWWPEWY,瓊軒苑,8755,22.34136,114.20894,KING HIN COURT,瓊軒苑,0,27332.1,36.9,27369,41,23,31050,0.9,1,0,0,1,0,839571,822474,黃大仙區,Wong Tai Sin,*,184.3419353
376,1,376,https://hk.centanet.com/findproperty/centadata-details/%E6%A5%AD%E6%98%8C%E5%A4%A7%E5%BB%88_2-SSBGBPSHPG,業昌大廈,8759,22.28652,114.13507,YIP CHEONG BUILDING,業昌大廈,0,22615.1,3817.6,26432.7,17,54,19940,0.05,1,2,0,0,0,831964,816434,中西區,Central and Western,***,186.924781
377,1,377,https://hk.centanet.com/findproperty/centadata-details/%E5%AE%89%E5%AF%A7%E8%8A%B1%E5%9C%92_2-GDAPBPKRPA,安寧花園,8768,22.31648,114.26314,ON NING GARDEN BLOCK 3,安寧花園第3座,2300,129273,6072,135345,39,34,32400,0.05,1,0,0,0,1,845157,819721,西貢區,Sai Kung,*,174.418089
378,2,378,https://hk.centanet.com/findproperty/centadata-details/%E5%B1%B1%E7%BF%A0%E8%8B%91_2-SGYBGPBXPB,山翠苑,8770,22.2698,114.23342,SHAN TSUI COURT TSUI PUI HOUSE BLOCK A,山翠苑 翠珮閣 A座,0,9940,0,9940,33,43,24000,0.9,1,0,0,1,0,842099,814551,東區,Eastern,*,106.9798168
379,1,379,https://hk.centanet.com/findproperty/centadata-details/%E8%90%AC%E5%AF%B6%E5%A4%A7%E5%BB%88_2-EYPWWPWJPS,萬寶大廈,8779,22.29173,114.19916,MARVEL BUILDING,萬寶大廈,38,1746.5,776,2522.5,23,37,25000,0.05,1,0,0,1,0,838563,816975,東區,Eastern,*,69.5471559
380,2,380,https://hk.centanet.com/findproperty/centadata-details/%E5%BA%B7%E9%BA%97%E5%9C%92_2-MLTHTHMYHZ,康麗園,8781,22.31915,114.22293,CONNIE TOWERS BLOCK A,康麗園Ａ座,0,23250.7,0,23250.7,24,51,33260,0.9,1,0,0,1,0,841014,820018,觀塘區,Kwun Tong,*,87.30278486
381,1,381,https://hk.centanet.com/findproperty/centadata-details/%E5%A6%82%E6%84%8F%E6%A8%93_2-EYBSWPGSPK,如意樓,8787,22.28679,114.14019,YU YEE BUILDING,如意樓,15,536,141.3,677.3,6,42,21500,0.2,0,0,0,0,0,832484,816436,中西區,Central and Western,*,43.90345814
382,1,382,https://hk.centanet.com/findproperty/centadata-details/%E6%B3%B0%E6%98%8C%E6%A8%93_2-UDRCFRFORJ,泰昌樓,8791,22.32682,114.16149,TAI CHEONG MANSION,泰昌樓,16,447.4,504.9,952.3,6,43,15630,0.4,0,0,1,0,0,834680,820868,深水埗區,Sham Shui Po,*,54.46339579
383,1,383,https://hk.centanet.com/findproperty/centadata-details/%E9%A6%99%E6%B1%9F%E5%A4%A7%E5%BB%88_2-OQDOQRSARO,香江大廈,8793,22.27836,114.17297,HONG KONG BUILDING,香江大廈,0,3931.9,1436.5,5368.4,14,58,23600,0.05,1,0,0,1,0,835860,815493,灣仔區,Wan Chai,*,79.4859772
384,1,384,https://hk.centanet.com/findproperty/centadata-details/%E8%8D%94%E6%99%AF%E9%96%A3_2-EEEAGPAYPS,荔景閣,8796,22.34275,114.13645,LAI YING HOUSE,荔影閣,1920,148615,0,148615,41,23,33050,0.6,1,0,0,1,1,832103,822630,葵青區,Kwai Tsing,*,326.281951
385,1,385,https://hk.centanet.com/findproperty/centadata-details/%E5%8A%A0%E9%80%A3%E5%A8%81%E5%A4%A7%E5%BB%88_2-UOFVURSJRU,加連威大廈,8806,22.29957,114.17308,GRANVILLE BUILDING,加連威大廈,0,2875.5,2115.3,4990.8,10,59,32540,0.1,1,0,0,1,0,835878,817845,油尖旺區,Yau Tsim Mong,*,106.5794313
386,2,386,https://hk.centanet.com/findproperty/centadata-details/%E6%98%8E%E5%BE%B7%E5%9C%92_2-UQCRFRDJRS,明德園,8819,22.31898,114.17682,SUNLIGHT GARDEN,明德園,0,9350,0,9350,21,60,35000,1,1,0,0,1,0,836261,819996,九龍城區,Kowloon City,*,128.6060761
387,2,387,https://hk.centanet.com/findproperty/centadata-details/%E5%90%8C%E7%99%BC%E5%A4%A7%E5%BB%88_2-BWDGPPBYPS,同發大廈,8824,22.44619,114.02226,TUNG FAT BUILDING,同發大廈,0,6438.1,1920.3,8358.4,17,48,21750,0.3,1,0,0,0,0,820355,834092,元朗區,Yuen Long,*,171.3802273
388,1,388,https://hk.centanet.com/findproperty/centadata-details/%E6%A6%AE%E7%99%BC%E6%A8%93_2-AESGPPKRPK,榮發樓,8825,22.28528,114.1526,WING FAT HOUSE,榮發樓,0,0,922.4,922.4,6,41,27200,0.05,1,0,0,0,0,0,0,中西區,Central and Western, ,50.15818525
389,1,389,https://hk.centanet.com/findproperty/centadata-details/%E6%84%9B%E7%90%B4%E6%B5%B7%E5%B2%B8_2-KEPPWPPJPG,愛琴海岸,8835,22.37352,113.99423,AEGEAN COAST SHOPPING ARCADE,愛琴海岸商場,0,0,4894,4894,2,22,48350,3,1,0,0,0,1,0,0,屯門區,Tuen Mun, ,260.8201571
390,1,390,https://hk.centanet.com/findproperty/centadata-details/%E8%8F%AF%E9%BA%97%E6%A8%93_2-UCJOFRCJRS,華麗樓,8839,22.31338,114.22666,WAH LAI MANSION,華禮大廈,0,7053.3,543.2,7596.5,13,58,29650,0.3,1,0,0,1,0,841401,819377,觀塘區,Kwun Tong,*,154.6752446
