OID_,PerSqFeet,Area,lat,lon,Building,NAME_ENG,NAME_CHT,OP_YRM,FLAT_NO,DGFA,NDGFA,TOTAL,BD_STOREY,Year,Income2016,WalkDis,Lift,SDU_cat,Potential,Management,MajorEstat,Easting,Northing,dc_chi,dc_eng,SDU_IND,
1,13259,905,22.277040000000000,114.192970000000003,大坑道16-18號,NO SPECIFIC NAME,沒有名稱,1/1/1955 0:00,0,2578.000000000000000,107.299999999999997,2685.300000000000182,5,70,90450,1.500000000000000,1,0,0,1,0,837931,815361,灣仔區,Wan Chai,*,
2,7842,686,22.339630000000000,114.155270000000002,和興大廈,WO HING BUILDING,和興大廈,6/1/1957 0:00,0,5632.500000000000000,643.100000000000023,6275.600000000000364,8,67,20000,0.5,0,2,0,1,0,834044,822285,深水埗區,Sham Shui Po,***,
3,7643,942,22.290189999999999,114.196849999999998,美都大廈,MIDO APARTMENTS,美都大廈,7/1/1958 0:00,0,5360.100000000000364,918.600000000000023,6278.699999999999818,16,66,26780,0.4,1,1,0,1,0,838326,816811,東區,Eastern,**,
4,12858,801,22.277830000000002,114.184320000000000,蟾宮大廈,EMPIRE COURT,蟾宮大廈,,0,7617.100000000000364,1890.000000000000000,9507.100000000000364,17,0,50000,0.3,1,0,0,1,0,837033,815447,灣仔區,Wan Chai,*,
5,10852,645,22.289570000000001,114.209080000000000,麗都大廈,LIDO APARTMENTS,麗都大廈,5/1/1958 0:00,0,12936.500000000000000,542.899999999999977,13479.399999999999636,17,66,26990,0.2,1,1,0,1,0,839609,816746,東區,Eastern,**,
6,10009,1049,22.290189999999999,114.196849999999998,美都大廈,MIDO APARTMENTS,美都大廈,7/1/1958 0:00,0,5360.100000000000364,918.600000000000023,6278.699999999999818,16,66,26780,0.4,1,1,0,1,0,838326,816811,東區,Eastern,**,
7,8695,759,22.329170000000001,114.166830000000004,華僑大廈 B座,WAH KIU MANSION,華僑大廈,7/1/1958 0:00,0,8183.800000000000182,746.500000000000000,8930.299999999999272,12,66,27740,0.4,1,1,0,1,0,835232,821128,深水埗區,Sham Shui Po,**,
8,13605,735,22.285399999999999,114.190960000000004,歌頓大廈,GORDON HOUSE,歌頓大廈,6/1/1958 0:00,0,7192.500000000000000,322.800000000000011,7515.300000000000182,16,66,19250,0.3,1,0,0,1,0,837720,816268,東區,Eastern,*,
9,12898,721,22.279869999999999,114.151030000000006,威勝大廈,WISE MANSION,威勝大廈,10/1/1958 0:00,0,11044.000000000000000,506.000000000000000,11550.000000000000000,14,66,53000,0.8,1,0,0,1,0,833593,815646,中西區,Central and Western,*,
10,9615,884,22.321629999999999,114.179220000000001,翠華大廈 1座,MANDARIN COURT BLOCK 1,翠華大廈第１座,12/1/1958 0:00,0,5790.500000000000000,0,5790.500000000000000,12,66,87000,1.000000000000000,1,0,0,1,0,836510,820291,九龍城區,Kowloon City,*,
11,14003,607,22.277429999999999,114.183290000000000,星華大廈,STARLIGHT HOUSE,星華大廈,12/1/1958 0:00,0,4025.699999999999818,293.500000000000000,4319.199999999999818,12,66,50000,0.3,1,0,0,1,0,836924,815401,灣仔區,Wan Chai,*,
12,12893,698,22.325099999999999,114.178049999999999,美滿大廈,MAY MOON HOUSE,美滿大廈,6/1/1959 0:00,0,2857.300000000000182,110.000000000000000,2967.300000000000182,13,65,84160,1.000000000000000,1,0,0,1,0,836386,820675,九龍城區,Kowloon City,*,
13,10256,780,22.316109999999998,114.223269999999999,康寧大廈,HONG NING BUILDING,康寧大廈,7/1/1963 0:00,0,8823.899999999999636,1293.000000000000000,10116.899999999999636,11,61,17100,0.6,0,2,1,0,0,841048,819678,觀塘區,Kwun Tong,***,
14,15447,492,22.277580000000000,114.186530000000005,加路連大樓,Caroline Hill Court,加路連大樓,7/1/1959 0:00,0,8718.100000000000364,646.100000000000023,9364.200000000000728,13,65,19000,0.4,1,0,0,1,0,837256,815410,灣仔區,Wan Chai,*,
15,8888,1044,22.297339999999998,114.172610000000006,美麗都大廈 D座,MIRADOR MANSION,美麗都大廈,7/1/1959 0:00,0,37625.000000000000000,18480.000000000000000,56105.000000000000000,18,65,19500,0.05,1,2,0,1,0,835826,817623,油尖旺區,Yau Tsim Mong,***,
16,7194,1390,22.305759999999999,114.169110000000003,統一大廈 A座,UNITED MANSION BLOCK A,統一大廈Ａ座,11/1/1958 0:00,0,7465.000000000000000,1543.000000000000000,9008.000000000000000,16,66,16640,0.2,1,2,1,1,0,835474,818532,油尖旺區,Yau Tsim Mong,***,
17,11090,541,22.277390000000000,114.186769999999996,禮加大樓,Lei Kwa Court,禮加大樓,7/1/1959 0:00,0,3988.500000000000000,297.600000000000023,4286.100000000000364,13,65,19000,0.4,1,0,0,1,0,837288,815390,灣仔區,Wan Chai,*,
18,11013,572,22.277580000000000,114.186530000000005,加路連大樓,Caroline Hill Court,加路連大樓,7/1/1959 0:00,0,8718.100000000000364,646.100000000000023,9364.200000000000728,13,65,19000,0.4,1,0,0,1,0,837256,815410,灣仔區,Wan Chai,*,
19,11351,703,22.281820000000000,114.184759999999997,華納大廈,VIENNA MANSION,華納大廈,11/1/1958 0:00,0,5523.000000000000000,753.000000000000000,6276.000000000000000,12,66,42250,0.2,1,0,0,1,0,837094,815889,灣仔區,Wan Chai,*,
20,10224,978,22.283329999999999,114.191900000000004,金殿大廈,GOLDEN COURT,金殿大廈,11/1/1958 0:00,0,9535.000000000000000,2377.000000000000000,11912.000000000000000,12,66,35350,0.05,1,0,0,1,0,837816,816026,東區,Eastern,*,
21,9280,625,22.280339999999999,114.223969999999994,禮林大廈,LAI LAM BUILDING,禮林大廈,2/1/1959 0:00,0,2598.800000000000182,218.000000000000000,2816.800000000000182,11,66,25000,0.2,1,0,0,1,0,841123,815728,東區,Eastern,*,
22,10000,598,22.317380000000000,114.170569999999998,榮華大樓,WING WAH BUILDING,榮華大樓,5/1/1959 0:00,0,5020.000000000000000,4135.000000000000000,9155.000000000000000,12,65,19640,0.2,1,1,1,1,0,835615,819817,油尖旺區,Yau Tsim Mong,**,
23,9627,590,22.290700000000001,114.196470000000005,皇冠大廈,CORONET COURT,皇冠大廈,9/1/1958 0:00,0,12025.799999999999272,1436.099999999999909,13461.899999999999636,15,66,19800,0.4,1,2,0,1,0,838289,816857,東區,Eastern,***,
24,8647,636,22.279740000000000,114.225449999999995,樂群大廈,LOK KWAN HOUSE,樂群大廈,10/1/1958 0:00,0,5867.000000000000000,494.000000000000000,6361.000000000000000,12,66,32000,0.4,1,1,0,1,0,841277,815661,東區,Eastern,**,
25,6984,859,22.300450000000001,114.174750000000003,金巴利大廈,KIMLEY HOUSE,金利大廈,6/1/1985 0:00,34,1466.900000000000091,177.099999999999994,1644.000000000000000,18,39,15630,0.4,1,0,0,1,0,836050,817944,油尖旺區,Yau Tsim Mong,*,
26,9069,860,22.302530000000001,114.175049999999999,良友大廈,COMPANION COURT,良友大廈,1/1/1959 0:00,0,3447.199999999999818,463.800000000000011,3911.000000000000000,10,66,19210,0.4,1,2,0,0,0,836077,818175,油尖旺區,Yau Tsim Mong,***,
27,10000,550,22.297339999999998,114.172610000000006,美麗都大廈 C座,MIRADOR MANSION,美麗都大廈,7/1/1959 0:00,0,37625.000000000000000,18480.000000000000000,56105.000000000000000,18,65,19500,0.05,1,2,0,1,0,835826,817623,油尖旺區,Yau Tsim Mong,***,
28,8800,725,22.290929999999999,114.200140000000005,美輪大廈,MAYLUN APARTMENTS,美輪大廈,7/1/1959 0:00,0,19383.000000000000000,1542.000000000000000,20925.000000000000000,18,65,22170,0.05,1,2,0,1,0,838680,816869,東區,Eastern,***,
29,14884,739,22.329239999999999,114.162989999999994,華登大廈 A-B座,WAH TANG BUILDING,華登大廈,1/1/1968 0:00,0,2544.699999999999818,606.500000000000000,3151.199999999999818,14,57,17550,0.05,1,1,1,1,0,834838,821132,深水埗區,Sham Shui Po,**,
30,11792,848,22.282119999999999,114.185100000000006,華廈大廈,WELCOME MANSION,華廈大廈,9/1/1959 0:00,0,4978.500000000000000,611.000000000000000,5589.500000000000000,12,65,50230,0.2,1,0,0,1,0,837108,815917,灣仔區,Wan Chai,*,
31,12850,856,22.329239999999999,114.162989999999994,華登大廈 A-B座,WAH TANG BUILDING,華登大廈,1/1/1968 0:00,0,2544.699999999999818,606.500000000000000,3151.199999999999818,14,57,17550,0.05,1,1,1,1,0,834838,821132,深水埗區,Sham Shui Po,**,
32,12040,696,22.329239999999999,114.162989999999994,華登大廈 C-D座,WAH TANG BUILDING,華登大廈,1/1/1968 0:00,0,2544.699999999999818,606.500000000000000,3151.199999999999818,14,57,17550,0.05,1,1,1,1,0,834838,821132,深水埗區,Sham Shui Po,**,
33,11162,688,22.281169999999999,114.184950000000001,百德大廈 B座,PATERSON BUILDING BLOCK B,百德大廈B座,12/1/1959 0:00,0,21333.400000000001455,2644.000000000000000,23977.400000000001455,16,65,42250,0.05,0,0,0,0,0,837098,815814,灣仔區,Wan Chai,*,
34,11143,1023,22.321809999999999,114.179559999999995,翠華大廈 2座,MANDARIN COURT BLOCK 2,翠華大廈第２座,3/1/1960 0:00,0,5719.300000000000182,0,5719.300000000000182,12,65,87000,1.500000000000000,1,0,0,1,0,836545,820310,九龍城區,Kowloon City,*,
35,12629,871,22.327400000000001,114.179890000000000,何東道2-8號,NO SPECIFIC NAME,沒有名稱,1/1/1960 0:00,0,3699.000000000000000,0,3699.000000000000000,9,65,82000,1.500000000000000,1,0,0,1,0,836577,820926,九龍城區,Kowloon City,*,
36,12313,843,22.329239999999999,114.162989999999994,華登大廈 C-D座,WAH TANG BUILDING,華登大廈,1/1/1968 0:00,0,2544.699999999999818,606.500000000000000,3151.199999999999818,14,57,17550,0.05,1,1,1,1,0,834838,821132,深水埗區,Sham Shui Po,**,
37,12325,688,22.280860000000001,114.185059999999993,百德大廈 D座,PATERSON BUILDING BLOCK D,百德大廈D座,12/1/1959 0:00,0,21333.400000000001455,2644.000000000000000,23977.400000000001455,16,65,42250,0.05,0,0,0,0,0,837113,815774,灣仔區,Wan Chai,*,
38,14687,817,22.280860000000001,114.185059999999993,百德大廈 D座,PATERSON BUILDING BLOCK D,百德大廈D座,12/1/1959 0:00,0,21333.400000000001455,2644.000000000000000,23977.400000000001455,16,65,42250,0.05,0,0,0,0,0,837113,815774,灣仔區,Wan Chai,*,
39,8803,886,22.320010000000000,114.176240000000007,帝國大廈,IMPERIAL COURT,帝國大廈,6/1/1960 0:00,0,10453.200000000000728,471.199999999999989,10924.399999999999636,14,64,30000,0.7,1,0,0,1,0,836205,820113,九龍城區,Kowloon City,*,
40,15519,741,22.281169999999999,114.184950000000001,百德大廈 B座,PATERSON BUILDING BLOCK B,百德大廈B座,12/1/1959 0:00,0,21333.400000000001455,2644.000000000000000,23977.400000000001455,16,65,42250,0.05,0,0,0,0,0,837098,815814,灣仔區,Wan Chai,*,
41,10045,886,22.320010000000000,114.176240000000007,帝國大廈,IMPERIAL COURT,帝國大廈,6/1/1960 0:00,0,10453.200000000000728,471.199999999999989,10924.399999999999636,14,64,30000,0.7,1,0,0,1,0,836205,820113,九龍城區,Kowloon City,*,
42,13052,498,22.281260000000000,114.185130000000001,百德大廈 A座,PATERSON BUILDING BLOCK A,百德大廈A座,12/1/1959 0:00,0,21333.400000000001455,2644.000000000000000,23977.400000000001455,16,65,42250,0.05,1,0,0,0,0,837119,815819,灣仔區,Wan Chai,*,
43,12226,548,22.279769999999999,114.183019999999999,軒尼詩大廈,HENNESSY APARTMENTS,軒尼詩大廈,8/1/1960 0:00,0,11840.000000000000000,3186.000000000000000,15026.000000000000000,20,64,34500,0.05,1,0,1,1,0,836887,815653,灣仔區,Wan Chai,*,
44,8408,509,22.330449999999999,114.166250000000005,東廬大樓 A座,TUNG LO COURT BLOCK A,東廬大樓Ａ座,8/1/1960 0:00,0,19107.299999999999272,1696.799999999999955,20804.099999999998545,12,64,28430,0.3,0,2,0,1,0,835177,821256,深水埗區,Sham Shui Po,***,
45,9643,1037,22.320010000000000,114.176240000000007,帝國大廈,IMPERIAL COURT,帝國大廈,6/1/1960 0:00,0,10453.200000000000728,471.199999999999989,10924.399999999999636,14,64,30000,0.7,1,0,0,1,0,836205,820113,九龍城區,Kowloon City,*,
46,13838,831,22.283429999999999,114.191559999999996,凱旋大廈 B座,TRIUMPH COURT,凱旋大廈,10/1/1959 0:00,0,7754.000000000000000,795.200000000000045,8549.200000000000728,11,65,35350,0.05,1,0,0,0,0,837784,816060,東區,Eastern,*,
47,12226,548,22.279769999999999,114.183019999999999,軒尼詩大廈,HENNESSY APARTMENTS,軒尼詩大廈,8/1/1960 0:00,0,11840.000000000000000,3186.000000000000000,15026.000000000000000,20,64,34500,0.05,1,0,1,1,0,836887,815653,灣仔區,Wan Chai,*,
48,12226,548,22.279769999999999,114.183019999999999,軒尼詩大廈,HENNESSY APARTMENTS,軒尼詩大廈,8/1/1960 0:00,0,11840.000000000000000,3186.000000000000000,15026.000000000000000,20,64,34500,0.05,1,0,1,1,0,836887,815653,灣仔區,Wan Chai,*,
49,11267,1065,22.289999999999999,114.209119999999999,民新大廈,MANSION BUILDING,民新大廈,8/1/1960 0:00,0,5809.600000000000364,886.399999999999977,6696.000000000000000,13,64,26990,0.2,1,1,0,0,0,839585,816796,東區,Eastern,**,
50,13597,581,22.283429999999999,114.191559999999996,凱旋大廈 B座,TRIUMPH COURT,凱旋大廈,10/1/1959 0:00,0,7754.000000000000000,795.200000000000045,8549.200000000000728,11,65,35350,0.05,1,0,0,0,0,837784,816060,東區,Eastern,*,
51,12345,567,22.279769999999999,114.183019999999999,軒尼詩大廈,HENNESSY APARTMENTS,軒尼詩大廈,8/1/1960 0:00,0,11840.000000000000000,3186.000000000000000,15026.000000000000000,20,64,34500,0.05,1,0,1,1,0,836887,815653,灣仔區,Wan Chai,*,
52,10901,688,22.280950000000001,114.185239999999993,百德大廈 C座,PATERSON BUILDING BLOCK C,百德大廈C座,12/1/1959 0:00,0,21333.400000000001455,2644.000000000000000,23977.400000000001455,16,65,42250,0.05,0,0,0,1,0,837131,815786,灣仔區,Wan Chai,*,
53,10561,445,22.319310000000002,114.161360000000002,富貴大廈 西座,PEONY HOUSE WEST BLOCK,富貴大廈西座,7/1/1961 0:00,0,11119.000000000000000,1344.000000000000000,12463.000000000000000,12,63,24000,0.05,1,1,0,0,0,834684,820043,油尖旺區,Yau Tsim Mong,**,
54,10526,684,22.297979999999999,114.171779999999998,海防大廈,HAI PHONG MANSION,海防大廈,11/1/1960 0:00,0,12280.700000000000728,2176.900000000000091,14457.600000000000364,16,64,22000,0.05,1,1,0,1,0,835742,817677,油尖旺區,Yau Tsim Mong,**,
55,11434,962,22.288160000000001,114.196060000000003,康德大廈,KENT MANSION,康德大廈,8/1/1961 0:00,0,9816.000000000000000,0,9816.000000000000000,13,63,31000,0.3,1,0,0,1,0,838257,816569,東區,Eastern,*,
56,11761,670,22.282560000000000,114.192459999999997,百利大廈,PAK LEE BUILDING,百利大廈,3/1/1961 0:00,0,7916.300000000000182,1611.599999999999909,9527.899999999999636,14,64,46250,0.05,1,0,0,1,0,837866,815969,東區,Eastern,*,
57,7954,440,22.319310000000002,114.161360000000002,富貴大廈 西座,PEONY HOUSE WEST BLOCK,富貴大廈西座,7/1/1961 0:00,0,11119.000000000000000,1344.000000000000000,12463.000000000000000,12,63,24000,0.05,1,1,0,0,0,834684,820043,油尖旺區,Yau Tsim Mong,**,
58,11827,930,22.269559999999998,114.184950000000001,成和大廈,SING WOO BUILDING,成和大廈,4/1/1961 0:00,0,2250.000000000000000,250.000000000000000,2500.000000000000000,10,63,30000,1.500000000000000,1,1,0,1,0,837097,814530,灣仔區,Wan Chai,**,
59,9333,600,22.306249999999999,114.167710000000000,利成大廈,LEE SHING MANSION,利成大廈,6/1/1961 0:00,0,6159.500000000000000,1307.599999999999909,7467.100000000000364,14,63,24300,0.1,1,2,0,1,0,835323,818580,油尖旺區,Yau Tsim Mong,***,
60,8067,471,22.315230000000000,114.222309999999993,宜安大廈,YEE ON BUILDING,宜安大廈,7/1/1961 0:00,0,2689.000000000000000,547.100000000000023,3236.099999999999909,6,63,16380,0.3,0,2,0,1,0,840950,819581,觀塘區,Kwun Tong,***,
61,9590,415,22.282869999999999,114.212940000000003,太就樓,TAI CHOW HOUSE,太就樓,10/1/1960 0:00,0,7672.199999999999818,131.000000000000000,7803.199999999999818,10,64,20580,0.4,1,0,0,1,0,839979,816000,東區,Eastern,*,
62,13793,725,22.283700000000000,114.142510000000001,興華樓 B座,HING WAH MANSION BLOCK B,興華樓B座,11/1/1961 0:00,0,3565.000000000000000,155.000000000000000,3720.000000000000000,12,63,85500,0.1,1,0,0,1,0,832735,816090,中西區,Central and Western,*,
63,16622,456,22.283700000000000,114.142510000000001,興華樓 B座,HING WAH MANSION BLOCK B,興華樓B座,11/1/1961 0:00,0,3565.000000000000000,155.000000000000000,3720.000000000000000,12,63,85500,0.1,1,0,0,1,0,832735,816090,中西區,Central and Western,*,
64,11783,611,22.301410000000001,114.174949999999995,太平洋大廈,PACIFIC BUILDING,太平洋大廈,12/1/1961 0:00,0,3970.000000000000000,537.500000000000000,4507.500000000000000,12,63,19210,0.5,1,0,0,1,0,836073,818052,油尖旺區,Yau Tsim Mong,*,
65,11471,462,22.317689999999999,114.175070000000005,自由大廈,LIBERTY MANSION,自由大廈,1/1/1962 0:00,0,4452.000000000000000,291.000000000000000,4743.000000000000000,16,63,65000,0.6,1,0,0,1,0,836083,819853,九龍城區,Kowloon City,*,
66,9484,601,22.321310000000000,114.170540000000003,龍旺大廈,LUNG MONG BUILDING,龍旺大廈,1/1/1962 0:00,0,4037.300000000000182,306.699999999999989,4344.000000000000000,12,63,15000,0.1,1,1,0,1,0,835619,820257,油尖旺區,Yau Tsim Mong,**,
67,11640,634,22.301140000000000,114.176119999999997,金德大廈,GOLDEN MANSION,金德大廈,7/1/1962 0:00,0,4207.500000000000000,844.000000000000000,5051.500000000000000,15,62,23130,0.4,1,0,0,0,0,836190,818020,油尖旺區,Yau Tsim Mong,*,
68,10495,484,22.292290000000001,114.198279999999997,和富大樓,WHARF MANSION,和富大樓,6/1/1962 0:00,0,6580.000000000000000,956.000000000000000,7536.000000000000000,15,62,27490,0.2,1,1,0,1,0,838470,817048,東區,Eastern,**,
69,10957,637,22.301140000000000,114.176119999999997,金德大廈,GOLDEN MANSION,金德大廈,7/1/1962 0:00,0,4207.500000000000000,844.000000000000000,5051.500000000000000,15,62,23130,0.4,1,0,0,0,0,836190,818020,油尖旺區,Yau Tsim Mong,*,
70,10648,1033,22.325340000000001,114.177700000000002,太和苑,PEACE GARDEN,太和苑,1/1/1962 0:00,0,4116.000000000000000,0,4116.000000000000000,13,63,84160,0.9,1,0,0,0,0,836356,820700,九龍城區,Kowloon City,*,
71,12378,887,22.325340000000001,114.177700000000002,太和苑,PEACE GARDEN,太和苑,1/1/1962 0:00,0,4116.000000000000000,0,4116.000000000000000,13,63,84160,0.9,1,0,0,0,0,836356,820700,九龍城區,Kowloon City,*,
72,11115,484,22.292290000000001,114.198279999999997,和富大樓,WHARF MANSION,和富大樓,6/1/1962 0:00,0,6580.000000000000000,956.000000000000000,7536.000000000000000,15,62,27490,0.2,1,1,0,1,0,838470,817048,東區,Eastern,**,
73,7173,460,22.247540000000001,114.157889999999995,香港仔大樓,YIP YEE MANSION,業漁大樓,8/1/1968 0:00,0,856.700000000000045,1350.299999999999955,2207.000000000000000,13,56,20000,1.000000000000000,1,0,0,0,0,834312,812076,南區,Southern,*,
74,13406,634,22.301140000000000,114.176119999999997,金德大廈,GOLDEN MANSION,金德大廈,7/1/1962 0:00,0,4207.500000000000000,844.000000000000000,5051.500000000000000,15,62,23130,0.4,1,0,0,0,0,836190,818020,油尖旺區,Yau Tsim Mong,*,
75,12558,637,22.301140000000000,114.176119999999997,金德大廈,GOLDEN MANSION,金德大廈,7/1/1962 0:00,0,4207.500000000000000,844.000000000000000,5051.500000000000000,15,62,23130,0.4,1,0,0,0,0,836190,818020,油尖旺區,Yau Tsim Mong,*,
76,10602,896,22.296109999999999,114.171409999999995,漢中大廈,HANCHUNG MANSION,漢中大廈,5/1/1962 0:00,0,2955.599999999999909,540.899999999999977,3496.500000000000000,13,62,22000,0.05,1,0,0,1,0,835703,817465,油尖旺區,Yau Tsim Mong,*,
77,10071,556,22.301410000000001,114.174949999999995,太平洋大廈,PACIFIC BUILDING,太平洋大廈,12/1/1961 0:00,0,3970.000000000000000,537.500000000000000,4507.500000000000000,12,63,19210,0.5,1,0,0,1,0,836073,818052,油尖旺區,Yau Tsim Mong,*,
78,11292,611,22.301410000000001,114.174949999999995,太平洋大廈,PACIFIC BUILDING,太平洋大廈,12/1/1961 0:00,0,3970.000000000000000,537.500000000000000,4507.500000000000000,12,63,19210,0.5,1,0,0,1,0,836073,818052,油尖旺區,Yau Tsim Mong,*,
79,10979,490,22.317689999999999,114.175070000000005,自由大廈,LIBERTY MANSION,自由大廈,1/1/1962 0:00,0,4452.000000000000000,291.000000000000000,4743.000000000000000,16,63,65000,0.6,1,0,0,1,0,836083,819853,九龍城區,Kowloon City,*,
80,11324,574,22.303200000000000,114.168329999999997,偉安大廈 A座,WAI ON BUILDING BLOCK A,偉安大廈Ａ座,10/1/1962 0:00,0,5410.399999999999636,420.300000000000011,5830.699999999999818,16,62,21430,0.05,1,0,0,1,0,835386,818246,油尖旺區,Yau Tsim Mong,*,
81,13548,465,22.281820000000000,114.183650000000000,海殿大廈,HOI DEEN COURT,海殿大廈,8/1/1963 0:00,0,9117.000000000000000,472.000000000000000,9589.000000000000000,18,61,18000,0.2,1,0,0,1,0,836961,815887,灣仔區,Wan Chai,*,
82,12676,781,22.339630000000000,114.155270000000002,興華大廈,WO HING BUILDING,和興大廈,6/1/1957 0:00,0,5632.500000000000000,643.100000000000023,6275.600000000000364,8,67,20000,0.5,0,2,0,1,0,834044,822285,深水埗區,Sham Shui Po,***,
83,7471,787,22.289860000000001,114.195549999999997,五洲大廈,CONTINENTAL MANSION,五洲大廈,10/1/1962 0:00,0,26221.599999999998545,3614.199999999999818,29835.799999999999272,23,62,31000,0.3,1,1,0,1,0,838187,816789,東區,Eastern,**,
84,12139,659,22.268120000000000,114.184089999999998,寶德大廈,PO TAK MANSION,寶德大廈,3/1/1963 0:00,0,5092.500000000000000,0,5092.500000000000000,13,62,44500,2.000000000000000,1,0,0,0,0,837004,814353,灣仔區,Wan Chai,*,
85,8612,1045,22.316330000000001,114.226540000000000,啟德樓,KAI TAK HOUSE,啓德樓,7/1/1963 0:00,0,3658.000000000000000,0,3658.000000000000000,14,61,28500,0.7,1,0,0,1,0,841384,819707,觀塘區,Kwun Tong,*,
86,9167,685,22.303200000000000,114.168329999999997,百安大廈 A座,WAI ON BUILDING BLOCK A,偉安大廈Ａ座,10/1/1962 0:00,0,5410.399999999999636,420.300000000000011,5830.699999999999818,16,62,21430,0.05,1,0,0,1,0,835386,818246,油尖旺區,Yau Tsim Mong,*,
87,10359,946,22.325990000000001,114.186930000000004,玉華大廈,YORK MANSION,玉華大廈,6/1/1963 0:00,0,3115.199999999999818,0,3115.199999999999818,12,61,63200,0.7,0,0,0,0,0,837303,820777,九龍城區,Kowloon City,*,
88,11431,1041,22.325990000000001,114.186930000000004,玉華大廈,YORK MANSION,玉華大廈,6/1/1963 0:00,0,3115.199999999999818,0,3115.199999999999818,12,61,63200,0.7,0,0,0,0,0,837303,820777,九龍城區,Kowloon City,*,
89,16000,580,22.268120000000000,114.184089999999998,寶德大廈,PO TAK MANSION,寶德大廈,3/1/1963 0:00,0,5092.500000000000000,0,5092.500000000000000,13,62,44500,2.000000000000000,1,0,0,0,0,837004,814353,灣仔區,Wan Chai,*,
90,8777,900,22.303200000000000,114.168329999999997,百安大廈 A座,WAI ON BUILDING BLOCK A,偉安大廈Ａ座,10/1/1962 0:00,0,5410.399999999999636,420.300000000000011,5830.699999999999818,16,62,21430,0.05,1,0,0,1,0,835386,818246,油尖旺區,Yau Tsim Mong,*,
91,11324,574,22.303200000000000,114.168329999999997,偉安大廈 A座,WAI ON BUILDING BLOCK A,偉安大廈Ａ座,10/1/1962 0:00,0,5410.399999999999636,420.300000000000011,5830.699999999999818,16,62,21430,0.05,1,0,0,1,0,835386,818246,油尖旺區,Yau Tsim Mong,*,
92,11453,812,22.289860000000001,114.195549999999997,五洲大廈,CONTINENTAL MANSION,五洲大廈,10/1/1962 0:00,0,26221.599999999998545,3614.199999999999818,29835.799999999999272,23,62,31000,0.3,1,1,0,1,0,838187,816789,東區,Eastern,**,
93,9917,605,22.290080000000000,114.194789999999998,南方大廈,SOUTHERN BUILDING,南方大廈,1/1/1963 0:00,0,17271.099999999998545,1407.500000000000000,18678.599999999998545,20,62,18420,0.2,1,1,0,1,0,838112,816787,東區,Eastern,**,
94,11625,1015,22.281790000000001,114.185559999999995,美登大廈,HAMILTON MANSION,美登大廈,11/1/1962 0:00,0,6282.600000000000364,495.000000000000000,6777.600000000000364,13,62,50230,0.2,1,0,0,1,0,837172,815885,灣仔區,Wan Chai,*,
95,10939,841,22.268120000000000,114.184089999999998,寶德大廈,PO TAK MANSION,寶德大廈,3/1/1963 0:00,0,5092.500000000000000,0,5092.500000000000000,13,62,44500,2.000000000000000,1,0,0,0,0,837004,814353,灣仔區,Wan Chai,*,
96,13674,841,22.268120000000000,114.184089999999998,寶德大廈,PO TAK MANSION,寶德大廈,3/1/1963 0:00,0,5092.500000000000000,0,5092.500000000000000,13,62,44500,2.000000000000000,1,0,0,0,0,837004,814353,灣仔區,Wan Chai,*,
97,13754,538,22.278279999999999,114.186390000000003,麗達大廈,RITA HOUSE,麗達大廈,2/1/1963 0:00,0,1217.299999999999955,229.699999999999989,1447.000000000000000,11,62,22000,0.3,1,0,0,1,0,837250,815491,灣仔區,Wan Chai,*,
98,16918,662,22.268120000000000,114.184089999999998,寶德大廈,PO TAK MANSION,寶德大廈,3/1/1963 0:00,0,5092.500000000000000,0,5092.500000000000000,13,62,44500,2.000000000000000,1,0,0,0,0,837004,814353,灣仔區,Wan Chai,*,
99,7056,479,22.312000000000001,114.170590000000004,麗星大廈,LAI SHING BUILDING,麗星大廈,9/1/1963 0:00,0,6126.699999999999818,941.299999999999955,7068.000000000000000,19,61,15000,0.05,1,1,1,0,0,835623,819226,油尖旺區,Yau Tsim Mong,**,
100,7744,501,22.290080000000000,114.194789999999998,南方大廈,SOUTHERN BUILDING,南方大廈,1/1/1963 0:00,0,17271.099999999998545,1407.500000000000000,18678.599999999998545,20,62,18420,0.2,1,1,0,1,0,838112,816787,東區,Eastern,**,
101,11231,463,22.316690000000001,114.191419999999994,安昌大廈,ON WO YUEN PHASE I ON CHEONG BUILDING,安和園第一期安昌大廈,3/1/1973 0:00,0,4765.100000000000364,483.699999999999989,5248.800000000000182,15,52,18930,0.5,1,0,1,0,1,837766,819743,九龍城區,Kowloon City,*,
102,9718,533,22.289860000000001,114.195549999999997,五洲大廈,CONTINENTAL MANSION,五洲大廈,10/1/1962 0:00,0,26221.599999999998545,3614.199999999999818,29835.799999999999272,23,62,31000,0.3,1,1,0,1,0,838187,816789,東區,Eastern,**,
103,9502,442,22.317990000000002,114.173230000000004,華樂大廈,WAH LOK BUILDING,華樂大廈,5/1/1963 0:00,0,4418.699999999999818,264.500000000000000,4683.199999999999818,15,61,26000,0.4,1,1,0,1,0,835889,819892,油尖旺區,Yau Tsim Mong,**,
104,8049,441,22.284030000000001,114.221209999999999,太祥樓,TAI CHEONG HOUSE,太祥樓,11/1/1962 0:00,0,7600.000000000000000,599.000000000000000,8199.000000000000000,11,62,15290,0.2,1,0,0,1,0,840856,816143,東區,Eastern,*,
105,9670,516,22.289860000000001,114.195549999999997,五洲大廈,CONTINENTAL MANSION,五洲大廈,10/1/1962 0:00,0,26221.599999999998545,3614.199999999999818,29835.799999999999272,23,62,31000,0.3,1,1,0,1,0,838187,816789,東區,Eastern,**,
106,11373,466,22.317380000000000,114.167360000000002,德利樓,TAK LEI HOUSE,德利樓,7/1/1977 0:00,15,415.399999999999977,266.199999999999989,681.600000000000023,6,47,14850,0.3,0,0,0,0,0,835292,819821,油尖旺區,Yau Tsim Mong,*,
107,8633,417,22.327729999999999,114.187129999999996,五聯大廈,YUE LUEN MANSION,沒有名稱,1/1/1967 0:00,0,737.000000000000000,185.500000000000000,922.500000000000000,6,58,22230,0.5,0,1,0,1,0,837325,820967,九龍城區,Kowloon City,**,
108,11200,508,22.290080000000000,114.194789999999998,南方大廈,SOUTHERN BUILDING,南方大廈,1/1/1963 0:00,0,17271.099999999998545,1407.500000000000000,18678.599999999998545,20,62,18420,0.2,1,1,0,1,0,838112,816787,東區,Eastern,**,
109,10268,857,22.302630000000001,114.175439999999995,僑豐大廈,KIU FUNG MANSION,僑豐大廈,6/1/1963 0:00,0,11975.399999999999636,1050.000000000000000,13025.399999999999636,16,61,23130,0.4,1,2,0,1,0,836117,818184,油尖旺區,Yau Tsim Mong,***,
110,9911,907,22.289860000000001,114.195549999999997,五洲大廈,CONTINENTAL MANSION,五洲大廈,10/1/1962 0:00,0,26221.599999999998545,3614.199999999999818,29835.799999999999272,23,62,31000,0.3,1,1,0,1,0,838187,816789,東區,Eastern,**,
111,9248,865,22.302630000000001,114.175439999999995,僑豐大廈,KIU FUNG MANSION,僑豐大廈,6/1/1963 0:00,0,11975.399999999999636,1050.000000000000000,13025.399999999999636,16,61,23130,0.4,1,2,0,1,0,836117,818184,油尖旺區,Yau Tsim Mong,***,
112,10673,787,22.289860000000001,114.195549999999997,五洲大廈,CONTINENTAL MANSION,五洲大廈,10/1/1962 0:00,0,26221.599999999998545,3614.199999999999818,29835.799999999999272,23,62,31000,0.3,1,1,0,1,0,838187,816789,東區,Eastern,**,
113,9049,652,22.304539999999999,114.171360000000007,金百龍大廈,CUMBERLAND HOUSE,金百龍大廈,8/1/1963 0:00,0,1779.700000000000045,1796.700000000000045,3576.400000000000091,11,61,17210,0.05,1,2,0,1,0,835688,818396,油尖旺區,Yau Tsim Mong,***,
114,8419,582,22.277490000000000,114.229870000000005,好景樓,HO KING BUILDING,好景樓,10/1/1979 0:00,60,2288.599999999999909,910.299999999999955,3198.900000000000091,22,45,32100,0.2,1,0,0,0,0,841728,815405,東區,Eastern,*,
115,17309,513,22.283590000000000,114.127840000000006,美新大廈,MAY SUN BUILDING,美新大廈,5/1/1964 0:00,0,6710.000000000000000,610.000000000000000,7320.000000000000000,12,60,45490,0.3,1,1,0,1,0,831217,816082,中西區,Central and Western,**,
116,13737,495,22.318629999999999,114.170519999999996,國榮大樓,KWOK WING BUILDING,國榮大樓,8/1/1964 0:00,0,1723.099999999999909,516.299999999999955,2239.400000000000091,12,60,16500,0.05,1,0,1,1,0,835617,819957,油尖旺區,Yau Tsim Mong,*,
117,13111,572,22.287520000000001,114.144670000000005,星輝大廈,SING FAI BUILDING,星輝大廈,2/1/1979 0:00,92,3611.000000000000000,877.200000000000045,4488.199999999999818,25,46,26630,0.05,1,0,0,0,0,832946,816516,中西區,Central and Western,*,
118,8305,590,22.323340000000002,114.165930000000003,利泰大樓,LEE TAI BUILDING,利泰大樓,12/1/1963 0:00,0,4630.399999999999636,378.399999999999977,5008.800000000000182,15,61,16200,0.2,1,1,1,0,0,835142,820479,油尖旺區,Yau Tsim Mong,**,
119,10471,764,22.279019999999999,114.183340000000001,麗園大廈,LAI YUEN APARTMENTS,麗園大廈,4/1/1964 0:00,0,7160.199999999999818,1263.799999999999955,8424.000000000000000,14,60,22000,0.1,1,0,0,1,0,836930,815578,灣仔區,Wan Chai,*,
120,11098,901,22.282319999999999,114.186030000000002,維德大廈,VICTORIA PARK MANSION,維德大廈,11/1/1963 0:00,0,35018.699999999997090,10898.100000000000364,45916.800000000002910,16,61,50230,0.4,1,0,0,1,0,837217,815940,灣仔區,Wan Chai,*,
121,8652,460,22.292149999999999,114.197580000000002,僑裕大樓,GAIN YU BUILDING,橋裕大廈,5/1/1988 0:00,60,3540.599999999999909,1484.200000000000045,5024.800000000000182,23,36,27490,0.3,1,0,0,1,0,838402,817025,東區,Eastern,*,
122,8003,1087,22.317240000000002,114.174959999999999,曾榕大廈,TSAN YUNG MANSION,曾榕大廈,7/1/1964 0:00,0,9276.100000000000364,1463.299999999999955,10739.399999999999636,13,60,65000,0.6,1,0,0,1,0,836064,819828,九龍城區,Kowloon City,*,
123,6497,531,22.335799999999999,114.196380000000005,威信樓,WEI SHUN MANSION,威信樓,4/1/1964 0:00,0,1613.900000000000091,1159.000000000000000,2772.900000000000091,6,60,14540,0.7,0,0,0,1,0,838277,821863,黃大仙區,Wong Tai Sin,*,
124,12951,471,22.278880000000001,114.177300000000002,高華大廈,GO WAH MANSION,高華大廈,5/1/1964 0:00,0,5325.899999999999636,903.399999999999977,6229.300000000000182,15,60,29000,0.4,1,1,0,1,0,836312,815552,灣仔區,Wan Chai,**,
125,11627,860,22.282219999999999,114.185789999999997,新唐大廈,NEWTOWN MANSION,新唐大廈,11/1/1963 0:00,0,35018.699999999997090,10898.100000000000364,45916.800000000002910,15,61,50230,0.3,1,0,0,1,0,837188,815934,灣仔區,Wan Chai,*,
126,15582,738,22.281340000000000,114.150509999999997,雅景大廈,GREEN FIELD COURT,雅景大廈,11/1/1977 0:00,42,2954.699999999999818,0,2954.699999999999818,22,47,50000,0.8,1,0,0,1,0,833547,815826,中西區,Central and Western,*,
127,8029,685,22.302199999999999,114.174800000000005,環海大廈,UNIVERSAL MANSION,環海大廈,8/1/1962 0:00,0,12056.700000000000728,1157.000000000000000,13213.700000000000728,11,62,19210,0.4,1,0,0,1,0,836055,818142,油尖旺區,Yau Tsim Mong,*,
128,7547,689,22.320599999999999,114.161689999999993,興旺大廈,HING WONG MANSION,興旺大樓,1/1/1964 0:00,0,21780.000000000000000,1909.000000000000000,23689.000000000000000,16,61,18630,0.3,1,2,0,1,0,834707,820165,油尖旺區,Yau Tsim Mong,***,
129,10827,423,22.313590000000001,114.171049999999994,東方大廈,TUNG YU BUILDING,東裕大廈,1/1/1979 0:00,69,2731.099999999999909,313.399999999999977,3044.500000000000000,24,46,12490,0.05,1,0,0,1,0,835669,819401,油尖旺區,Yau Tsim Mong,*,
130,9676,618,22.290260000000000,114.195059999999998,南天大廈,NAM TIN BUILDING,南天大廈,12/1/1963 0:00,0,6997.100000000000364,1575.000000000000000,8572.100000000000364,20,61,18420,0.2,1,1,0,1,0,838142,816813,東區,Eastern,**,
131,11197,643,22.286390000000001,114.151349999999994,永利大廈,WINNING HOUSE,永利大廈,12/1/1975 0:00,0,0,1654.299999999999955,1654.299999999999955,11,49,27200,0.05,1,0,0,1,0,833632,816386,中西區,Central and Western,*,
132,11017,570,22.316600000000001,114.187340000000006,七喜大廈,LUCKY BUILDING,七喜大廈,8/1/1964 0:00,0,13255.299999999999272,947.700000000000045,14203.000000000000000,19,60,25000,0.05,1,1,0,1,0,837348,819734,九龍城區,Kowloon City,**,
133,9780,501,22.277680000000000,114.229900000000001,錦華大樓,KAM WA BUILDING,錦華大樓,6/1/1964 0:00,0,4573.399999999999636,1200.799999999999955,5774.199999999999818,14,60,32100,0.1,1,0,0,1,0,841729,815434,東區,Eastern,*,
134,9404,638,22.317769999999999,114.173079999999999,藝興大廈,NGAI HING MANSION,藝興大廈,6/1/1964 0:00,0,17074.900000000001455,1403.299999999999955,18478.200000000000728,17,60,26000,0.5,1,2,0,1,0,835877,819861,油尖旺區,Yau Tsim Mong,***,
135,7283,519,22.371009999999998,114.115139999999997,華成樓 B座,WAH SHING BUILDING BLOCK B,華成樓Ｂ座,2/1/1964 0:00,0,1910.099999999999909,872.399999999999977,2782.500000000000000,6,61,15830,0.4,0,1,1,0,0,829912,825763,荃灣區,Tsuen Wan,**,
136,10849,553,22.286269999999998,114.136460000000000,屈地大廈 38-44號,WHITTY  BUILDING,屈地大廈,9/1/1963 0:00,0,10153.600000000000364,863.600000000000023,11017.200000000000728,15,61,18000,0.05,1,2,1,1,0,832107,816381,中西區,Central and Western,***,
137,9734,1130,22.278649999999999,114.177750000000003,金冠大廈,KAM KOON BUILDING,金冠大廈,8/1/1978 0:00,34,1660.900000000000091,1153.799999999999955,2814.699999999999818,22,46,27950,0.5,1,0,0,1,0,836357,815538,灣仔區,Wan Chai,*,
138,10046,428,22.330909999999999,114.162940000000006,美華大廈,MAYFAIR BUILDING,美華大廈,5/1/1993 0:00,24,1035.799999999999955,584.799999999999955,1620.599999999999909,15,31,14370,0.05,1,0,0,1,0,834837,821314,深水埗區,Sham Shui Po,*,
139,10172,521,22.286269999999998,114.136460000000000,屈地大廈 22-28號,WHITTY  BUILDING,屈地大廈,9/1/1963 0:00,0,10153.600000000000364,863.600000000000023,11017.200000000000728,15,61,18000,0.05,1,2,1,1,0,832107,816381,中西區,Central and Western,***,
140,12593,536,22.279019999999999,114.183340000000001,麗園大廈,LAI YUEN APARTMENTS,麗園大廈,4/1/1964 0:00,0,7160.199999999999818,1263.799999999999955,8424.000000000000000,14,60,22000,0.1,1,0,0,1,0,836930,815578,灣仔區,Wan Chai,*,
141,10513,760,22.316600000000001,114.187340000000006,七喜大廈,LUCKY BUILDING,七喜大廈,8/1/1964 0:00,0,13255.299999999999272,947.700000000000045,14203.000000000000000,19,60,25000,0.05,1,1,0,1,0,837348,819734,九龍城區,Kowloon City,**,
142,10218,1008,22.319410000000001,114.175240000000002,榮英大廈,WING YING MANSION,榮英大廈,2/1/1964 0:00,0,16873.099999999998545,756.000000000000000,17629.099999999998545,19,61,35000,0.6,0,0,0,0,0,836102,820048,九龍城區,Kowloon City,*,
143,10152,916,22.300950000000000,114.173820000000006,豪麗大廈,HOLLY MANSION,豪麗大廈,6/1/1964 0:00,0,2472.500000000000000,676.000000000000000,3148.500000000000000,10,60,23660,0.4,1,0,0,1,0,835954,817992,油尖旺區,Yau Tsim Mong,*,
144,12048,996,22.325869999999998,114.174859999999995,公爵大廈,DUKE MANSION,公爵大廈,7/1/1964 0:00,0,2453.800000000000182,0,2453.800000000000182,13,60,49900,0.6,1,0,0,1,0,836061,820760,九龍城區,Kowloon City,*,
145,8176,636,22.334350000000001,114.194919999999996,彩虹唐樓,CHOI HUNG BUILDING,彩虹唐樓,7/1/1964 0:00,0,10104.000000000000000,2628.900000000000091,12732.899999999999636,7,60,30000,0.9,0,0,0,1,0,838121,821692,黃大仙區,Wong Tai Sin,*,
146,12477,545,22.277899999999999,114.173910000000006,軒尼詩道171-173號,NO SPECIFIC NAME,沒有名稱,4/1/1964 0:00,0,1054.500000000000000,334.500000000000000,1389.000000000000000,12,60,16000,0.05,1,0,0,1,0,835961,815449,灣仔區,Wan Chai,*,
147,8853,436,22.334930000000000,114.194829999999996,仁愛大樓,YAN OI BUILDING,仁愛大樓,5/1/1964 0:00,0,11443.100000000000364,1590.099999999999909,13033.200000000000728,15,60,18800,0.9,1,1,0,1,0,838118,821761,黃大仙區,Wong Tai Sin,**,
148,8333,720,22.281639999999999,114.152649999999994,財利大樓,CHOY LEE HOUSE,財利樓,12/1/1981 0:00,8,316.899999999999977,416.800000000000011,733.700000000000045,6,43,36410,0.6,0,0,0,0,0,833764,815858,中西區,Central and Western,*,
149,9955,452,22.278410000000001,114.173519999999996,利順大樓,LEE SHUN BUILDING,利順大樓,4/1/1964 0:00,0,1583.099999999999909,262.800000000000011,1845.900000000000091,12,60,23250,0.05,1,0,0,1,0,835922,815502,灣仔區,Wan Chai,*,
150,15536,457,22.268319999999999,114.186650000000000,昌明大樓,CHEONG MING BUILDING,昌明大廈,1/1/1964 0:00,0,2157.000000000000000,220.000000000000000,2377.000000000000000,9,61,35200,1.500000000000000,1,0,0,1,0,837277,814389,灣仔區,Wan Chai,*,
151,12477,545,22.277899999999999,114.173910000000006,軒尼詩道171-173號,NO SPECIFIC NAME,沒有名稱,4/1/1964 0:00,0,1054.500000000000000,334.500000000000000,1389.000000000000000,12,60,16000,0.05,1,0,0,1,0,835961,815449,灣仔區,Wan Chai,*,
152,8064,434,22.334930000000000,114.194829999999996,仁愛大樓,YAN OI BUILDING,仁愛大樓,5/1/1964 0:00,0,11443.100000000000364,1590.099999999999909,13033.200000000000728,15,60,18800,0.9,1,1,0,1,0,838118,821761,黃大仙區,Wong Tai Sin,**,
153,8168,404,22.303640000000001,114.169049999999999,恆福大廈,HANG FOOK BUILDING,恒福大廈,2/1/1979 0:00,45,1727.599999999999909,630.399999999999977,2358.000000000000000,17,46,23000,0.2,1,0,0,1,0,835459,818297,油尖旺區,Yau Tsim Mong,*,
154,6134,489,22.306249999999999,114.167710000000000,佳成大廈,LEE SHING MANSION,利成大廈,6/1/1961 0:00,0,6159.500000000000000,1307.599999999999909,7467.100000000000364,14,63,24300,0.1,1,2,0,1,0,835323,818580,油尖旺區,Yau Tsim Mong,***,
155,10000,598,22.290260000000000,114.195059999999998,南天大廈,NAM TIN BUILDING,南天大廈,12/1/1963 0:00,0,6997.100000000000364,1575.000000000000000,8572.100000000000364,20,61,18420,0.2,1,1,0,1,0,838142,816813,東區,Eastern,**,
156,7356,435,22.335460000000001,114.194640000000007,衍慶大廈 衍慶街34-58號,YIN HING BUILDING,衍慶大廈,9/1/1964 0:00,0,12419.500000000000000,1676.500000000000000,14096.000000000000000,8,60,16500,0.8,1,2,0,1,0,838091,821842,黃大仙區,Wong Tai Sin,***,
157,8840,552,22.334930000000000,114.194829999999996,仁愛大樓,YAN OI BUILDING,仁愛大樓,5/1/1964 0:00,0,11443.100000000000364,1590.099999999999909,13033.200000000000728,15,60,18800,0.9,1,1,0,1,0,838118,821761,黃大仙區,Wong Tai Sin,**,
158,11009,545,22.277899999999999,114.173910000000006,軒尼詩道171-173號,NO SPECIFIC NAME,沒有名稱,4/1/1964 0:00,0,1054.500000000000000,334.500000000000000,1389.000000000000000,12,60,16000,0.05,1,0,0,1,0,835961,815449,灣仔區,Wan Chai,*,
159,9586,605,22.313800000000001,114.227649999999997,華豐大廈,HWA FUNG MANSION,華豐大廈,2/1/1964 0:00,0,3895.099999999999909,0,3895.099999999999909,14,61,28500,0.6,1,0,0,0,0,841501,819421,觀塘區,Kwun Tong,*,
160,12195,533,22.279430000000001,114.192440000000005,明新大廈,MING SUN BUILDING,明新大廈,4/1/1964 0:00,0,7371.000000000000000,567.000000000000000,7938.000000000000000,14,60,50210,0.5,1,0,0,1,0,837865,815623,灣仔區,Wan Chai,*,
161,7706,532,22.370790000000000,114.119470000000007,紅棉大廈,KAPOK MANSION,紅棉大廈,1/1/1965 0:00,0,5974.899999999999636,627.600000000000023,6602.500000000000000,14,60,15000,0.5,1,1,0,1,0,830359,825743,荃灣區,Tsuen Wan,**,
162,12647,593,22.324809999999999,114.186059999999998,嘉登大廈,CARLTON MANSION,嘉登大廈,1/1/1965 0:00,0,4631.000000000000000,0,4631.000000000000000,12,60,62750,0.8,1,0,0,1,0,837215,820643,九龍城區,Kowloon City,*,
163,9577,710,22.261720000000000,114.233879999999999,文華樓,MAN WAH BUILDING,文華樓,3/1/1971 0:00,0,860.700000000000045,248.000000000000000,1108.700000000000045,6,54,24000,0.5,0,0,0,0,0,842137,813670,東區,Eastern,*,
164,8593,640,22.315040000000000,114.227230000000006,月華樓,YUET WAH MANSION,月華樓,4/1/1965 0:00,0,5425.699999999999818,452.100000000000023,5877.800000000000182,13,59,28500,0.7,1,0,0,1,0,841470,819565,觀塘區,Kwun Tong,*,
165,12875,699,22.324809999999999,114.186059999999998,嘉登大廈,CARLTON MANSION,嘉登大廈,1/1/1965 0:00,0,4631.000000000000000,0,4631.000000000000000,12,60,62750,0.8,1,0,0,1,0,837215,820643,九龍城區,Kowloon City,*,
166,9464,560,22.315040000000000,114.227230000000006,月華樓,YUET WAH MANSION,月華樓,4/1/1965 0:00,0,5425.699999999999818,452.100000000000023,5877.800000000000182,13,59,28500,0.7,1,0,0,1,0,841470,819565,觀塘區,Kwun Tong,*,
167,9121,603,22.278220000000001,114.176969999999997,光華大廈,KWONG WAH MANSION,光華大廈,11/1/1964 0:00,0,4047.199999999999818,778.600000000000023,4825.800000000000182,16,60,27950,0.4,1,0,0,1,0,836278,815479,灣仔區,Wan Chai,*,
168,9425,435,22.313910000000000,114.226540000000000,僑業大廈,KIU YIP MANSION (G-M),僑業大廈（Ｇ－Ｍ）,6/1/1965 0:00,0,7009.899999999999636,543.299999999999955,7553.199999999999818,12,59,29650,0.3,1,0,0,0,0,841385,819438,觀塘區,Kwun Tong,*,
169,9230,650,22.314560000000000,114.227500000000006,安樂花園大廈,ON LOK GARDEN MANSION,安樂花園大廈,3/1/1965 0:00,0,4213.899999999999636,351.199999999999989,4565.100000000000364,13,60,28500,0.7,1,0,0,1,0,841483,819509,觀塘區,Kwun Tong,*,
170,8695,1150,22.315899999999999,114.227140000000006,超群大廈,CHIU KWAN BUILDING,超群大廈,1/1/1965 0:00,0,7642.100000000000364,0,7642.100000000000364,13,60,28500,0.6,1,0,0,1,0,841440,819655,觀塘區,Kwun Tong,*,
171,11756,723,22.324809999999999,114.186059999999998,嘉登大廈,CARLTON MANSION,嘉登大廈,1/1/1965 0:00,0,4631.000000000000000,0,4631.000000000000000,12,60,62750,0.8,1,0,0,1,0,837215,820643,九龍城區,Kowloon City,*,
172,11612,713,22.319379999999999,114.177850000000007,德威大廈 (一期及二期),TAK WAI MANSION PHASE II,德威大廈第二期,6/1/1966 0:00,0,5036.399999999999636,592.500000000000000,5628.899999999999636,18,58,52500,1.000000000000000,1,0,0,0,0,836369,820041,九龍城區,Kowloon City,*,
173,12242,727,22.319379999999999,114.177850000000007,德威大廈 (一期及二期),TAK WAI MANSION PHASE II,德威大廈第二期,6/1/1966 0:00,0,5036.399999999999636,592.500000000000000,5628.899999999999636,18,58,52500,1.000000000000000,1,0,0,0,0,836369,820041,九龍城區,Kowloon City,*,
174,13582,455,22.269690000000001,114.184749999999994,協德大廈,HIAP TECK BUILDING,協德大廈,8/1/1965 0:00,0,1428.099999999999909,479.100000000000023,1907.200000000000045,8,59,30000,1.500000000000000,1,0,0,1,0,837080,814543,灣仔區,Wan Chai,*,
175,13005,529,22.249659999999999,114.155379999999994,香島大廈,ISLAND BUILDING,香島大廈,7/1/1985 0:00,57,2183.900000000000091,906.100000000000023,3090.000000000000000,22,39,26250,2.000000000000000,1,0,0,0,0,834049,812320,南區,Southern,*,
176,10411,413,22.370790000000000,114.119470000000007,紅棉大廈,KAPOK MANSION,紅棉大廈,1/1/1965 0:00,0,5974.899999999999636,627.600000000000023,6602.500000000000000,14,60,15000,0.5,1,1,0,1,0,830359,825743,荃灣區,Tsuen Wan,**,
177,8777,450,22.313910000000000,114.226540000000000,僑業大廈,KIU YIP MANSION (G-M),僑業大廈（Ｇ－Ｍ）,6/1/1965 0:00,0,7009.899999999999636,543.299999999999955,7553.199999999999818,12,59,29650,0.3,1,0,0,0,0,841385,819438,觀塘區,Kwun Tong,*,
178,8000,400,22.323029999999999,114.161420000000007,中英樓,CHUNG YING BUILDING,中英樓,7/1/1965 0:00,0,21569.799999999999272,2203.099999999999909,23772.900000000001455,15,59,16750,0.6,1,2,0,1,0,834674,820446,油尖旺區,Yau Tsim Mong,***,
179,12902,727,22.319379999999999,114.177850000000007,德威大廈 (一期及二期),TAK WAI MANSION PHASE II,德威大廈第二期,6/1/1966 0:00,0,5036.399999999999636,592.500000000000000,5628.899999999999636,18,58,52500,1.000000000000000,1,0,0,0,0,836369,820041,九龍城區,Kowloon City,*,
180,12973,713,22.319379999999999,114.177850000000007,德威大廈 (一期及二期),TAK WAI MANSION PHASE II,德威大廈第二期,6/1/1966 0:00,0,5036.399999999999636,592.500000000000000,5628.899999999999636,18,58,52500,1.000000000000000,1,0,0,0,0,836369,820041,九龍城區,Kowloon City,*,
181,15458,414,22.277300000000000,114.169629999999998,文熙大廈,MAN HEE MANSION,文熙大廈,5/1/1965 0:00,0,5560.000000000000000,840.299999999999955,6400.300000000000182,15,59,18600,0.3,1,0,0,1,0,835524,815387,灣仔區,Wan Chai,*,
182,14855,727,22.319379999999999,114.177850000000007,德威大廈 (一期及二期),TAK WAI MANSION PHASE II,德威大廈第二期,6/1/1966 0:00,0,5036.399999999999636,592.500000000000000,5628.899999999999636,18,58,52500,1.000000000000000,1,0,0,0,0,836369,820041,九龍城區,Kowloon City,*,
183,12792,727,22.319379999999999,114.177850000000007,德威大廈 (一期及二期),TAK WAI MANSION PHASE II,德威大廈第二期,6/1/1966 0:00,0,5036.399999999999636,592.500000000000000,5628.899999999999636,18,58,52500,1.000000000000000,1,0,0,0,0,836369,820041,九龍城區,Kowloon City,*,
184,11224,490,22.317350000000001,114.216300000000004,多喜大廈,Dor Hei Building - Podium,多喜大廈 - 平台,11/1/1972 0:00,0,1500.799999999999955,1942.799999999999955,3443.599999999999909,1,52,21250,0.4,1,0,0,1,0,840326,819820,觀塘區,Kwun Tong,*,
185,13052,475,22.282419999999998,114.126320000000007,西環新樓,SAI WAN NEW APARTMENTS,西環新樓,1/1/1965 0:00,0,4895.000000000000000,1557.000000000000000,6452.000000000000000,14,60,28000,0.3,1,0,0,1,0,831044,815950,中西區,Central and Western,*,
186,10645,930,22.277339999999999,114.182329999999993,崇蘭大廈,SUNG LAN MANSION,崇蘭大廈,1/1/1965 0:00,0,5005.000000000000000,711.000000000000000,5716.000000000000000,13,60,14500,0.4,1,0,0,1,0,836839,815389,灣仔區,Wan Chai,*,
187,15130,727,22.319379999999999,114.177850000000007,德威大廈 (一期及二期),TAK WAI MANSION PHASE II,德威大廈第二期,6/1/1966 0:00,0,5036.399999999999636,592.500000000000000,5628.899999999999636,18,58,52500,1.000000000000000,1,0,0,0,0,836369,820041,九龍城區,Kowloon City,*,
188,11544,693,22.296250000000001,114.171970000000002,良士大廈,ALPHA HOUSE,良士大廈,10/1/1964 0:00,0,9227.799999999999272,2881.900000000000091,12109.700000000000728,19,60,22000,0.05,1,0,0,1,0,835764,817482,油尖旺區,Yau Tsim Mong,*,
189,12301,504,22.277300000000000,114.169629999999998,文熙大廈,MAN HEE MANSION,文熙大廈,5/1/1965 0:00,0,5560.000000000000000,840.299999999999955,6400.300000000000182,15,59,18600,0.3,1,0,0,1,0,835524,815387,灣仔區,Wan Chai,*,
190,13816,579,22.317060000000001,114.174639999999997,龍翔大廈,LUNG CHEUNG BUILDING,龍翔大廈,1/1/1965 0:00,0,4886.000000000000000,270.300000000000011,5156.300000000000182,17,60,45250,0.5,1,0,0,1,0,836039,819782,九龍城區,Kowloon City,*,
191,15221,722,22.296250000000001,114.171970000000002,良士大廈,ALPHA HOUSE,良士大廈,10/1/1964 0:00,0,9227.799999999999272,2881.900000000000091,12109.700000000000728,19,60,22000,0.05,1,0,0,1,0,835764,817482,油尖旺區,Yau Tsim Mong,*,
192,10833,720,22.307829999999999,114.167199999999994,文蔚樓,MAN WAI BUILDING,文蔚樓,7/1/1965 0:00,0,29034.299999999999272,1814.900000000000091,30849.200000000000728,19,59,21290,0.3,0,2,0,0,0,835279,818767,油尖旺區,Yau Tsim Mong,***,
193,10344,464,22.313890000000001,114.169390000000007,上海大廈,SHANGHAI MANSION,上海大廈,8/1/1965 0:00,0,4930.199999999999818,507.399999999999977,5437.600000000000364,11,59,18500,0.05,1,0,1,1,0,835497,819434,油尖旺區,Yau Tsim Mong,*,
194,11468,715,22.317060000000001,114.174639999999997,龍翔大廈,LUNG CHEUNG BUILDING,龍翔大廈,1/1/1965 0:00,0,4886.000000000000000,270.300000000000011,5156.300000000000182,17,60,45250,0.5,1,0,0,1,0,836039,819782,九龍城區,Kowloon City,*,
195,10000,565,22.307520000000000,114.167119999999997,文苑樓,MAN YUEN BUILDING,文苑樓,10/1/1964 0:00,0,28838.000000000000000,2451.699999999999818,31289.700000000000728,19,60,16480,0.2,0,2,0,0,0,835270,818733,油尖旺區,Yau Tsim Mong,***,
196,8421,665,22.261720000000000,114.233879999999999,文華樓,MAN WAH BUILDING,文華樓,3/1/1971 0:00,0,860.700000000000045,248.000000000000000,1108.700000000000045,6,54,24000,0.5,0,0,0,0,0,842137,813670,東區,Eastern,*,
197,8333,834,22.305560000000000,114.169880000000006,韶興大廈,SIU HING BUILDING,韶興大廈,12/1/1964 0:00,0,4111.000000000000000,467.000000000000000,4578.000000000000000,16,60,16640,0.1,1,1,1,1,0,835545,818508,油尖旺區,Yau Tsim Mong,**,
198,8039,510,22.313330000000001,114.227630000000005,天香花園大廈,TIN HEUNG GARDEN HOUSE,天香花園大廈,10/1/1964 0:00,0,4092.000000000000000,0,4092.000000000000000,14,60,27550,0.5,1,0,0,1,0,841497,819372,觀塘區,Kwun Tong,*,
199,9662,652,22.314560000000000,114.227500000000006,安樂花園大廈,ON LOK GARDEN MANSION,安樂花園大廈,3/1/1965 0:00,0,4213.899999999999636,351.199999999999989,4565.100000000000364,13,60,28500,0.7,1,0,0,1,0,841483,819509,觀塘區,Kwun Tong,*,
200,10752,465,22.277470000000001,114.173839999999998,光裕樓,GLORY HOUSE,光裕樓,6/1/1965 0:00,0,1320.200000000000045,176.900000000000006,1497.099999999999909,12,59,18000,0.05,1,1,0,1,0,835956,815396,灣仔區,Wan Chai,**,
201,9672,610,22.315040000000000,114.227230000000006,月華樓,YUET WAH MANSION,月華樓,4/1/1965 0:00,0,5425.699999999999818,452.100000000000023,5877.800000000000182,13,59,28500,0.7,1,0,0,1,0,841470,819565,觀塘區,Kwun Tong,*,
202,9819,611,22.279219999999999,114.225769999999997,廣益大廈,KWONG YICK BUILDING,廣益大廈,6/1/1961 0:00,0,1899.500000000000000,519.799999999999955,2419.300000000000182,9,63,32000,0.4,0,1,0,1,0,841308,815603,東區,Eastern,**,
203,13333,570,22.279740000000000,114.180030000000002,金禧大廈,GOLDEN JUBILEE HOUSE,金禧大廈,12/1/1964 0:00,0,6549.000000000000000,1087.500000000000000,7636.500000000000000,15,60,18600,0.3,1,2,0,1,0,836590,815653,灣仔區,Wan Chai,***,
204,11422,471,22.288689999999999,114.193579999999997,中南大廈,CHUNG NAM MANSION,中南大廈,8/1/1965 0:00,0,4942.300000000000182,585.500000000000000,5527.800000000000182,18,59,37500,0.05,1,0,0,1,0,837985,816640,東區,Eastern,*,
205,14230,773,22.281659999999999,114.183380000000000,海都大廈,HOI TO COURT,海都大廈,10/1/1964 0:00,0,10643.000000000000000,1274.099999999999909,11917.100000000000364,18,60,20270,0.2,1,1,0,1,0,836928,815869,灣仔區,Wan Chai,**,
206,12624,602,22.279740000000000,114.180030000000002,金禧大廈,GOLDEN JUBILEE HOUSE,金禧大廈,12/1/1964 0:00,0,6549.000000000000000,1087.500000000000000,7636.500000000000000,15,60,18600,0.3,1,2,0,1,0,836590,815653,灣仔區,Wan Chai,***,
207,13109,595,22.288689999999999,114.193579999999997,中南大廈,CHUNG NAM MANSION,中南大廈,8/1/1965 0:00,0,4942.300000000000182,585.500000000000000,5527.800000000000182,18,59,37500,0.05,1,0,0,1,0,837985,816640,東區,Eastern,*,
208,14276,629,22.291770000000000,114.196590000000000,嘉雲樓,GARLAND HOUSE,嘉雲樓,4/1/1965 0:00,0,1217.000000000000000,263.699999999999989,1480.700000000000045,12,59,27490,0.4,1,0,0,1,0,838299,816978,東區,Eastern,*,
209,13636,550,22.286760000000001,114.137100000000004,同達大廈,TUNG TAT BUILDING,同達大廈,6/1/1965 0:00,0,2045.799999999999955,328.399999999999977,2374.199999999999818,14,59,20400,0.05,1,0,0,1,0,832163,816438,中西區,Central and Western,*,
210,11989,583,22.306100000000001,114.167429999999996,瑜德大廈,YUE TAK BUILDING,瑜德大廈,2/1/1965 0:00,0,3294.400000000000091,371.000000000000000,3665.400000000000091,15,60,19900,0.1,1,1,0,1,0,835295,818572,油尖旺區,Yau Tsim Mong,**,
211,8680,447,22.320910000000001,114.189760000000007,立基大廈,LUCKY HOUSE,立基大廈,7/1/1965 0:00,0,5274.000000000000000,591.899999999999977,5865.899999999999636,12,59,24500,0.4,1,0,0,1,0,837593,820213,九龍城區,Kowloon City,*,
212,16129,713,22.319379999999999,114.177850000000007,德威大廈 (一期及二期),TAK WAI MANSION PHASE II,德威大廈第二期,6/1/1966 0:00,0,5036.399999999999636,592.500000000000000,5628.899999999999636,18,58,52500,1.000000000000000,1,0,0,0,0,836369,820041,九龍城區,Kowloon City,*,
213,9312,698,22.248270000000002,114.155910000000006,宏興大廈,VENG HING BUILDING,宏興大廈,9/1/1965 0:00,0,2523.199999999999818,499.800000000000011,3023.000000000000000,13,59,26250,2.500000000000000,1,1,0,1,0,834107,812168,南區,Southern,**,
214,12998,577,22.278040000000001,114.180049999999994,德豐大樓,TAK FUNG HOUSE,德豐大樓,5/1/1965 0:00,0,1501.900000000000091,535.899999999999977,2037.799999999999955,9,59,19500,0.4,0,1,0,1,0,836591,815466,灣仔區,Wan Chai,**,
215,8301,518,22.291580000000000,114.198350000000005,仁德大廈,YEN DACK BUILDING,仁德大廈,3/1/1965 0:00,0,14404.000000000000000,971.000000000000000,15375.000000000000000,20,60,17720,0.2,1,2,1,1,0,838505,816972,東區,Eastern,***,
216,9434,920,22.321429999999999,114.171139999999994,國際大樓,KWOK CHAI BUILDING,國際大廈,1/1/1965 0:00,0,3028.000000000000000,1153.000000000000000,4181.000000000000000,18,60,20500,0.1,1,1,0,1,0,835675,820273,油尖旺區,Yau Tsim Mong,**,
217,15824,455,22.269690000000001,114.184749999999994,協德大廈,HIAP TECK BUILDING,協德大廈,8/1/1965 0:00,0,1428.099999999999909,479.100000000000023,1907.200000000000045,8,59,30000,1.500000000000000,1,0,0,1,0,837080,814543,灣仔區,Wan Chai,*,
218,8135,590,22.330220000000001,114.159930000000003,興隆大廈,HING LUNG BUILDING,興隆大廈,2/1/1965 0:00,0,3486.000000000000000,310.199999999999989,3796.199999999999818,13,60,15000,0.2,1,2,1,1,0,834526,821244,深水埗區,Sham Shui Po,***,
219,9765,512,22.286650000000002,114.140940000000001,順泰大廈,SHUN TAI BUILDING,順泰大廈,12/1/1992 0:00,66,2622.400000000000091,602.600000000000023,3225.000000000000000,24,32,31250,0.05,1,0,0,1,0,832566,816422,中西區,Central and Western,*,
220,14603,808,22.328340000000001,114.185180000000003,永德園,MAYFAIR GARDEN,永德園,9/1/1964 0:00,0,2225.099999999999909,0,2225.099999999999909,7,60,55000,0.6,1,0,0,1,0,837124,821034,九龍城區,Kowloon City,*,
221,9411,850,22.307829999999999,114.167199999999994,文蔚樓,MAN WAI BUILDING,文蔚樓,7/1/1965 0:00,0,29034.299999999999272,1814.900000000000091,30849.200000000000728,19,59,21290,0.3,0,2,0,0,0,835279,818767,油尖旺區,Yau Tsim Mong,***,
222,10874,423,22.370790000000000,114.119470000000007,紅棉大廈,KAPOK MANSION,紅棉大廈,1/1/1965 0:00,0,5974.899999999999636,627.600000000000023,6602.500000000000000,14,60,15000,0.5,1,1,0,1,0,830359,825743,荃灣區,Tsuen Wan,**,
223,7500,400,22.315349999999999,114.224819999999994,南安大樓,NAM ON MANSION,南安大樓,4/1/1965 0:00,0,2943.300000000000182,1458.200000000000045,4401.500000000000000,8,59,15300,0.5,0,2,0,1,0,841208,819597,觀塘區,Kwun Tong,***,
224,11888,715,22.317060000000001,114.174639999999997,龍翔大廈,LUNG CHEUNG BUILDING,龍翔大廈,1/1/1965 0:00,0,4886.000000000000000,270.300000000000011,5156.300000000000182,17,60,45250,0.5,1,0,0,1,0,836039,819782,九龍城區,Kowloon City,*,
225,13291,790,22.319830000000000,114.176779999999994,萬基大廈,MAN KEE MANSION BLOCK A-D,萬基大廈Ａ－Ｄ座,5/1/1966 0:00,0,13400.299999999999272,12040.399999999999636,25440.700000000000728,26,58,52210,0.8,0,0,0,1,0,836258,820093,九龍城區,Kowloon City,*,
226,11360,544,22.282769999999999,114.192639999999997,僑興大廈,KIU HING MANSION,僑興大廈,1/1/1966 0:00,0,27749.799999999999272,6001.300000000000182,33751.099999999998545,27,59,46250,0.1,1,0,0,1,0,837896,815991,東區,Eastern,*,
227,12118,741,22.319700000000001,114.178089999999997,瓊林別墅 B座,KINGSLAND VILLA BLOCK A,瓊林別墅Ａ座,5/1/1966 0:00,0,10522.899999999999636,1238.000000000000000,11760.899999999999636,18,58,52210,1.000000000000000,1,0,0,0,0,836392,820076,九龍城區,Kowloon City,*,
228,12164,970,22.320080000000001,114.178079999999994,僑宏大廈,KIU WANG MANSION BLOCK 1,僑宏大廈第一座,9/1/1966 0:00,0,10442.299999999999272,1025.400000000000091,11467.700000000000728,18,58,52210,0.9,1,0,0,1,0,836393,820123,九龍城區,Kowloon City,*,
229,11270,488,22.314309999999999,114.228120000000004,月明樓,YUET MING BUILDING (BLOCK 1),月明樓第一座,11/1/1974 0:00,0,7031.399999999999636,0,7031.399999999999636,13,50,27550,0.6,1,0,0,1,0,841548,819482,觀塘區,Kwun Tong,*,
230,8975,410,22.314840000000000,114.223370000000003,金橋華廈,CAMBRIDGE BUILDING,金僑華廈,9/1/1966 0:00,0,16345.799999999999272,1131.299999999999955,17477.099999999998545,22,58,15300,0.4,1,2,0,1,0,841058,819550,觀塘區,Kwun Tong,***,
231,9536,733,22.297470000000001,114.171809999999994,喜利大廈,HARILELA MANSION,喜利大廈,12/1/1965 0:00,0,4275.500000000000000,4315.000000000000000,8590.500000000000000,18,59,22000,0.05,1,1,0,1,0,835747,817616,油尖旺區,Yau Tsim Mong,**,
232,8761,525,22.326020000000000,114.161050000000003,界限大樓,BOUNDARY BUILDING,界限大樓,3/1/1966 0:00,0,7949.899999999999636,705.700000000000045,8655.600000000000364,15,59,18920,0.5,1,0,0,1,0,834642,820773,油尖旺區,Yau Tsim Mong,*,
233,10937,960,22.278359999999999,114.172970000000007,香江大廈,HONG KONG BUILDING,香江大廈,7/1/1966 0:00,0,3931.900000000000091,1436.500000000000000,5368.399999999999636,14,58,23600,0.05,1,0,0,1,0,835860,815493,灣仔區,Wan Chai,*,
234,10816,453,22.282769999999999,114.192639999999997,僑興大廈,KIU HING MANSION,僑興大廈,1/1/1966 0:00,0,27749.799999999999272,6001.300000000000182,33751.099999999998545,27,59,46250,0.1,1,0,0,1,0,837896,815991,東區,Eastern,*,
235,11372,510,22.280169999999998,114.185370000000006,香港大廈,HONG KONG MANSION,香港大廈,3/1/1966 0:00,0,18942.299999999999272,7897.699999999999818,26840.000000000000000,25,59,18800,0.05,1,2,0,1,0,837149,815699,灣仔區,Wan Chai,***,
236,9698,464,22.243880000000001,114.154660000000007,東南大廈,TUNG NAM BUILDING,東南大廈,12/1/1980 0:00,40,1805.700000000000045,624.200000000000045,2429.900000000000091,13,44,41000,0.05,1,0,0,1,0,833980,811681,南區,Southern,*,
237,11721,674,22.281420000000001,114.185509999999994,京士頓大廈 B座,KINGSTON BUILDING BLOCK B,京士頓大廈B座,5/1/1966 0:00,0,12617.500000000000000,3785.400000000000091,16402.900000000001455,18,58,30120,0.1,1,0,0,0,0,837164,815849,灣仔區,Wan Chai,*,
238,12135,651,22.319230000000001,114.177369999999996,德信園,WATERLOO HEIGHTS GARDEN,德信園,12/1/1965 0:00,0,5058.800000000000182,2745.800000000000182,7804.600000000000364,21,59,52500,1.000000000000000,1,0,0,1,0,836318,820024,九龍城區,Kowloon City,*,
239,13533,532,22.268899999999999,114.185410000000005,景祥大樓,KING CHEUNG MANSION,景祥大樓,3/1/1966 0:00,0,7131.899999999999636,1071.700000000000045,8203.600000000000364,12,59,41750,1.500000000000000,1,0,0,1,0,837142,814467,灣仔區,Wan Chai,*,
240,12605,476,22.281400000000001,114.126670000000004,先施西環大廈,SINCERE WESTERN HOUSE,先施西環大樓,2/1/1966 0:00,0,12870.200000000000728,1292.500000000000000,14162.700000000000728,12,59,20000,0.1,1,1,0,1,0,831065,815835,中西區,Central and Western,**,
241,11166,840,22.320080000000001,114.178079999999994,僑宏大廈,KIU WANG MANSION BLOCK 1,僑宏大廈第一座,9/1/1966 0:00,0,10442.299999999999272,1025.400000000000091,11467.700000000000728,18,58,52210,0.9,1,0,0,1,0,836393,820123,九龍城區,Kowloon City,*,
242,12039,706,22.327490000000001,114.166809999999998,長康大廈,CHEUNG HONG MANSION,長康大廈,8/1/1981 0:00,84,2436.300000000000182,652.100000000000023,3088.400000000000091,15,43,18250,0.3,1,0,0,1,0,835232,820940,深水埗區,Sham Shui Po,*,
243,10000,680,22.312760000000001,114.228539999999995,萬和花園大廈,MAN WO GARDEN MANSION,萬和花園大廈,5/1/1968 0:00,0,17647.500000000000000,1486.400000000000091,19133.900000000001455,12,56,27550,0.5,1,0,0,1,0,841586,819324,觀塘區,Kwun Tong,*,
244,13077,757,22.282769999999999,114.192639999999997,僑興大廈,KIU HING MANSION,僑興大廈,1/1/1966 0:00,0,27749.799999999999272,6001.300000000000182,33751.099999999998545,27,59,46250,0.1,1,0,0,1,0,837896,815991,東區,Eastern,*,
245,13526,414,22.276700000000002,114.171319999999994,修頓大廈,SOUTHORN MANSION,修頓大廈,10/1/1965 0:00,0,4326.899999999999636,1113.900000000000091,5440.800000000000182,15,59,20800,0.2,1,0,0,0,0,835687,815311,灣仔區,Wan Chai,*,
246,11994,667,22.319019999999998,114.177560000000000,德星樓,EDWARD COURT,德星樓,12/1/1965 0:00,0,5219.100000000000364,2025.200000000000045,7244.300000000000182,21,59,52500,1.000000000000000,1,0,0,1,0,836343,820005,九龍城區,Kowloon City,*,
247,11394,667,22.319019999999998,114.177560000000000,德星樓,EDWARD COURT,德星樓,12/1/1965 0:00,0,5219.100000000000364,2025.200000000000045,7244.300000000000182,21,59,52500,1.000000000000000,1,0,0,1,0,836343,820005,九龍城區,Kowloon City,*,
248,12309,853,22.282769999999999,114.192639999999997,僑興大廈,KIU HING MANSION,僑興大廈,1/1/1966 0:00,0,27749.799999999999272,6001.300000000000182,33751.099999999998545,27,59,46250,0.1,1,0,0,1,0,837896,815991,東區,Eastern,*,
249,11149,879,22.282769999999999,114.192639999999997,僑興大廈,KIU HING MANSION,僑興大廈,1/1/1966 0:00,0,27749.799999999999272,6001.300000000000182,33751.099999999998545,27,59,46250,0.1,1,0,0,1,0,837896,815991,東區,Eastern,*,
250,13422,447,22.275559999999999,114.171279999999996,安興大廈,ON HING MANSION,安興大廈,9/1/1966 0:00,0,4093.199999999999818,1495.299999999999955,5588.500000000000000,14,58,30800,0.3,1,0,0,1,0,835694,815178,灣仔區,Wan Chai,*,
251,18924,465,22.282769999999999,114.192639999999997,僑興大廈,KIU HING MANSION,僑興大廈,1/1/1966 0:00,0,27749.799999999999272,6001.300000000000182,33751.099999999998545,27,59,46250,0.1,1,0,0,1,0,837896,815991,東區,Eastern,*,
252,13068,880,22.282769999999999,114.192639999999997,僑興大廈,KIU HING MANSION,僑興大廈,1/1/1966 0:00,0,27749.799999999999272,6001.300000000000182,33751.099999999998545,27,59,46250,0.1,1,0,0,1,0,837896,815991,東區,Eastern,*,
253,13270,422,22.279630000000001,114.179159999999996,保如大廈,PAUL YEE MANSION,保如大廈,3/1/1966 0:00,0,4162.699999999999818,1493.500000000000000,5656.199999999999818,16,59,29000,0.4,1,0,0,1,0,836498,815643,灣仔區,Wan Chai,*,
254,10658,516,22.278359999999999,114.172970000000007,香江大廈,HONG KONG BUILDING,香江大廈,7/1/1966 0:00,0,3931.900000000000091,1436.500000000000000,5368.399999999999636,14,58,23600,0.05,1,0,0,1,0,835860,815493,灣仔區,Wan Chai,*,
255,15478,606,22.318999999999999,114.178280000000001,嘉景樓,CARRIE COURT,嘉景樓,1/1/1966 0:00,0,4726.800000000000182,2088.599999999999909,6815.399999999999636,19,59,52500,1.500000000000000,1,0,0,1,0,836413,819999,九龍城區,Kowloon City,*,
256,12804,781,22.282769999999999,114.192639999999997,僑興大廈,KIU HING MANSION,僑興大廈,1/1/1966 0:00,0,27749.799999999999272,6001.300000000000182,33751.099999999998545,27,59,46250,0.1,1,0,0,1,0,837896,815991,東區,Eastern,*,
257,9873,790,22.319830000000000,114.176779999999994,萬基大廈,MAN KEE MANSION BLOCK A-D,萬基大廈Ａ－Ｄ座,5/1/1966 0:00,0,13400.299999999999272,12040.399999999999636,25440.700000000000728,26,58,52210,0.8,0,0,0,1,0,836258,820093,九龍城區,Kowloon City,*,
258,15652,690,22.327490000000001,114.166809999999998,長康大廈,CHEUNG HONG MANSION,長康大廈,8/1/1981 0:00,84,2436.300000000000182,652.100000000000023,3088.400000000000091,15,43,18250,0.3,1,0,0,1,0,835232,820940,深水埗區,Sham Shui Po,*,
259,11392,790,22.319830000000000,114.176779999999994,萬基大廈,MAN KEE MANSION BLOCK A-D,萬基大廈Ａ－Ｄ座,5/1/1966 0:00,0,13400.299999999999272,12040.399999999999636,25440.700000000000728,26,58,52210,0.8,0,0,0,1,0,836258,820093,九龍城區,Kowloon City,*,
260,13677,658,22.282769999999999,114.192639999999997,僑興大廈,KIU HING MANSION,僑興大廈,1/1/1966 0:00,0,27749.799999999999272,6001.300000000000182,33751.099999999998545,27,59,46250,0.1,1,0,0,1,0,837896,815991,東區,Eastern,*,
261,10436,527,22.279900000000001,114.182050000000004,軒尼詩道459-465號,NO SPECIFIC NAME,沒有名稱,6/1/1966 0:00,0,2991.400000000000091,507.199999999999989,3498.599999999999909,15,58,14200,0.05,1,2,0,1,0,836805,815665,灣仔區,Wan Chai,***,
262,10952,420,22.268899999999999,114.185410000000005,景祥大樓,KING CHEUNG MANSION,景祥大樓,3/1/1966 0:00,0,7131.899999999999636,1071.700000000000045,8203.600000000000364,12,59,41750,1.500000000000000,1,0,0,1,0,837142,814467,灣仔區,Wan Chai,*,
263,10590,745,22.316939999999999,114.174490000000006,寶建大廈,GAY MANSION,寶建大廈,4/1/1966 0:00,0,2066.800000000000182,532.899999999999977,2599.699999999999818,13,58,45250,0.5,1,0,0,1,0,836023,819770,九龍城區,Kowloon City,*,
264,12506,790,22.319830000000000,114.176779999999994,萬基大廈,MAN KEE MANSION BLOCK A-D,萬基大廈Ａ－Ｄ座,5/1/1966 0:00,0,13400.299999999999272,12040.399999999999636,25440.700000000000728,26,58,52210,0.8,0,0,0,1,0,836258,820093,九龍城區,Kowloon City,*,
265,15511,606,22.318999999999999,114.178280000000001,嘉景樓,CARRIE COURT,嘉景樓,1/1/1966 0:00,0,4726.800000000000182,2088.599999999999909,6815.399999999999636,19,59,52500,1.500000000000000,1,0,0,1,0,836413,819999,九龍城區,Kowloon City,*,
266,15011,453,22.282769999999999,114.192639999999997,僑興大廈,KIU HING MANSION,僑興大廈,1/1/1966 0:00,0,27749.799999999999272,6001.300000000000182,33751.099999999998545,27,59,46250,0.1,1,0,0,1,0,837896,815991,東區,Eastern,*,
267,10000,450,22.316510000000001,114.226079999999996,協和大廈,HIP WO HOUSE,協和大廈,8/1/1966 0:00,0,10538.600000000000364,1612.099999999999909,12150.700000000000728,21,58,16330,0.7,1,2,0,1,0,841334,819730,觀塘區,Kwun Tong,***,
268,12164,559,22.282769999999999,114.192639999999997,僑興大廈,KIU HING MANSION,僑興大廈,1/1/1966 0:00,0,27749.799999999999272,6001.300000000000182,33751.099999999998545,27,59,46250,0.1,1,0,0,1,0,837896,815991,東區,Eastern,*,
269,15594,513,22.332989999999999,114.174440000000004,又一樓 D座,PARC OASIS TOWER 7,又一居第７座,10/1/1992 0:00,0,62732.599999999998545,0,62732.599999999998545,12,32,69160,0.5,1,0,0,0,1,836015,821548,深水埗區,Sham Shui Po,*,
270,11090,440,22.289120000000000,114.193989999999999,利都樓,RIALTO MANSION,利都樓,4/1/1966 0:00,0,10400.000000000000000,2724.699999999999818,13124.700000000000728,18,58,29000,0.05,1,0,0,1,0,838028,816682,東區,Eastern,*,
271,12481,681,22.277950000000001,114.174340000000001,濂風大廈,LINFOND MANSION,濂風大廈,10/1/1965 0:00,0,5733.800000000000182,736.600000000000023,6470.399999999999636,16,59,16000,0.1,1,0,0,1,0,836007,815448,灣仔區,Wan Chai,*,
272,13495,741,22.319700000000001,114.178089999999997,瓊林別墅 A座,KINGSLAND VILLA BLOCK A,瓊林別墅Ａ座,5/1/1966 0:00,0,10522.899999999999636,1238.000000000000000,11760.899999999999636,18,58,52210,1.000000000000000,1,0,0,0,0,836392,820076,九龍城區,Kowloon City,*,
273,12684,473,22.283230000000000,114.129819999999995,同興樓,TUNG HING MANSION,同興樓,6/1/1966 0:00,0,4458.000000000000000,792.000000000000000,5250.000000000000000,9,58,37190,0.1,1,1,0,1,0,831420,816030,中西區,Central and Western,**,
274,12060,529,22.314309999999999,114.228120000000004,月明樓,YUET MING BUILDING (BLOCK 1),月明樓第一座,11/1/1974 0:00,0,7031.399999999999636,0,7031.399999999999636,13,50,27550,0.6,1,0,0,1,0,841548,819482,觀塘區,Kwun Tong,*,
275,9740,616,22.282290000000000,114.129310000000004,金寶樓,KAM PO MANSION,金寶樓,8/1/1978 0:00,0,646.399999999999977,301.899999999999977,948.299999999999955,6,46,21150,0.05,0,0,0,1,0,831359,815938,中西區,Central and Western,*,
276,14521,606,22.318999999999999,114.178280000000001,嘉景樓,CARRIE COURT,嘉景樓,1/1/1966 0:00,0,4726.800000000000182,2088.599999999999909,6815.399999999999636,19,59,52500,1.500000000000000,1,0,0,1,0,836413,819999,九龍城區,Kowloon City,*,
277,10958,438,22.322320000000001,114.161469999999994,中和樓,CHUNG WO BUILDING,中和樓,1/1/1966 0:00,0,19702.099999999998545,1403.200000000000045,21105.299999999999272,15,59,17630,0.5,1,2,0,1,0,834678,820367,油尖旺區,Yau Tsim Mong,***,
278,12121,495,22.290250000000000,114.197000000000003,青雲大廈,TSING WAN BUILDING,青雲大廈,4/1/1966 0:00,0,4268.600000000000364,719.299999999999955,4987.899999999999636,23,58,26780,0.4,1,0,0,1,0,838337,816823,東區,Eastern,*,
279,14388,556,22.332989999999999,114.174440000000004,又一樓 C座,PARC OASIS TOWER 7,又一居第７座,10/1/1992 0:00,0,62732.599999999998545,0,62732.599999999998545,12,32,69160,0.5,1,0,0,0,1,836015,821548,深水埗區,Sham Shui Po,*,
280,13225,741,22.319700000000001,114.178089999999997,瓊林別墅 A座,KINGSLAND VILLA BLOCK A,瓊林別墅Ａ座,5/1/1966 0:00,0,10522.899999999999636,1238.000000000000000,11760.899999999999636,18,58,52210,1.000000000000000,1,0,0,0,0,836392,820076,九龍城區,Kowloon City,*,
281,15748,635,22.319230000000001,114.177369999999996,德信園,WATERLOO HEIGHTS GARDEN,德信園,12/1/1965 0:00,0,5058.800000000000182,2745.800000000000182,7804.600000000000364,21,59,52500,1.000000000000000,1,0,0,1,0,836318,820024,九龍城區,Kowloon City,*,
282,13274,565,22.282769999999999,114.192639999999997,僑興大廈,KIU HING MANSION,僑興大廈,1/1/1966 0:00,0,27749.799999999999272,6001.300000000000182,33751.099999999998545,27,59,46250,0.1,1,0,0,1,0,837896,815991,東區,Eastern,*,
283,9627,860,22.310549999999999,114.184539999999998,萬高花園洋樓,MARIGOLD MANSION BLOCK A,萬高花園大廈Ａ座,5/1/1966 0:00,0,10456.799999999999272,0,10456.799999999999272,20,58,28830,0.05,1,0,0,1,0,837059,819065,九龍城區,Kowloon City,*,
284,13448,519,22.282769999999999,114.192639999999997,僑興大廈,KIU HING MANSION,僑興大廈,1/1/1966 0:00,0,27749.799999999999272,6001.300000000000182,33751.099999999998545,27,59,46250,0.1,1,0,0,1,0,837896,815991,東區,Eastern,*,
285,9054,550,22.312760000000001,114.228539999999995,萬和花園大廈,MAN WO GARDEN MANSION,萬和花園大廈,5/1/1968 0:00,0,17647.500000000000000,1486.400000000000091,19133.900000000001455,12,56,27550,0.5,1,0,0,1,0,841586,819324,觀塘區,Kwun Tong,*,
286,11676,531,22.243729999999999,114.154300000000006,順利大廈,SHUN LEE BUILDING,順利大廈,3/1/1981 0:00,30,1181.200000000000045,647.500000000000000,1828.700000000000045,9,44,41000,0.1,0,0,0,1,0,833943,811657,南區,Southern,*,
287,15853,410,22.281639999999999,114.127899999999997,聯興新樓,LUEN HING APARTMENTS,聯興新樓,8/1/1966 0:00,0,7164.500000000000000,2040.000000000000000,9204.500000000000000,18,58,25800,0.05,1,0,0,0,0,831218,815875,中西區,Central and Western,*,
288,7598,408,22.278189999999999,114.176630000000003,祥興大廈,CHONG HING BUILDING,祥興大廈,12/1/1970 0:00,0,2780.000000000000000,354.699999999999989,3134.699999999999818,15,54,27950,0.4,1,0,0,1,0,836246,815482,灣仔區,Wan Chai,*,
289,9266,545,22.324829999999999,114.171769999999995,太華樓,TAI WAH MANSION,太華樓,5/1/1966 0:00,0,2635.000000000000000,210.000000000000000,2845.000000000000000,15,58,38750,0.3,1,0,0,0,0,835742,820640,油尖旺區,Yau Tsim Mong,*,
290,10000,521,22.279810000000001,114.184970000000007,渣甸大廈,KWONG ON BUILDING,廣安大廈,1/1/1966 0:00,0,2579.000000000000000,1255.299999999999955,3834.300000000000182,16,59,34500,0.05,1,0,1,1,0,837099,815657,灣仔區,Wan Chai,*,
291,9615,780,22.319830000000000,114.176779999999994,萬基大廈,MAN KEE MANSION BLOCK A-D,萬基大廈Ａ－Ｄ座,5/1/1966 0:00,0,13400.299999999999272,12040.399999999999636,25440.700000000000728,26,58,52210,0.8,0,0,0,1,0,836258,820093,九龍城區,Kowloon City,*,
292,13722,583,22.319230000000001,114.177369999999996,德信園,WATERLOO HEIGHTS GARDEN,德信園,12/1/1965 0:00,0,5058.800000000000182,2745.800000000000182,7804.600000000000364,21,59,52500,1.000000000000000,1,0,0,1,0,836318,820024,九龍城區,Kowloon City,*,
293,13129,556,22.279630000000001,114.182649999999995,泰港大廈,THAI KONG BUILDING,泰港大廈,8/1/1966 0:00,0,6039.399999999999636,2133.599999999999909,8173.000000000000000,23,58,14500,0.05,1,2,0,1,0,836858,815649,灣仔區,Wan Chai,***,
294,12941,425,22.289120000000000,114.193989999999999,利都樓,RIALTO MANSION,利都樓,4/1/1966 0:00,0,10400.000000000000000,2724.699999999999818,13124.700000000000728,18,58,29000,0.05,1,0,0,1,0,838028,816682,東區,Eastern,*,
295,15317,645,22.282769999999999,114.192639999999997,僑興大廈,KIU HING MANSION,僑興大廈,1/1/1966 0:00,0,27749.799999999999272,6001.300000000000182,33751.099999999998545,27,59,46250,0.1,1,0,0,1,0,837896,815991,東區,Eastern,*,
296,9122,513,22.330079999999999,114.162769999999995,長樂大廈,CHEONG LOK BUILDING,長樂大廈,1/1/1965 0:00,0,6100.000000000000000,2260.400000000000091,8360.399999999999636,13,60,12460,0.05,1,2,1,1,0,834816,821225,深水埗區,Sham Shui Po,***,
297,15030,652,22.281400000000001,114.126670000000004,先施西環大廈,SINCERE WESTERN HOUSE,先施西環大樓,2/1/1966 0:00,0,12870.200000000000728,1292.500000000000000,14162.700000000000728,12,59,20000,0.1,1,1,0,1,0,831065,815835,中西區,Central and Western,**,
298,10821,645,22.314309999999999,114.228120000000004,月明樓,YUET MING BUILDING (BLOCK 1),月明樓第一座,11/1/1974 0:00,0,7031.399999999999636,0,7031.399999999999636,13,50,27550,0.6,1,0,0,1,0,841548,819482,觀塘區,Kwun Tong,*,
299,8254,424,22.289390000000001,114.200360000000003,錦屏樓 C座,KAM PING MANSION BLOCK C,錦屏樓C座,1/1/1966 0:00,0,24710.299999999999272,2393.599999999999909,27103.900000000001455,15,59,13810,0.1,1,2,0,0,0,838688,816720,東區,Eastern,***,
300,14035,570,22.268899999999999,114.185410000000005,景祥大樓,KING CHEUNG MANSION,景祥大樓,3/1/1966 0:00,0,7131.899999999999636,1071.700000000000045,8203.600000000000364,12,59,41750,1.500000000000000,1,0,0,1,0,837142,814467,灣仔區,Wan Chai,*,
301,9195,609,22.312760000000001,114.228539999999995,萬和花園大廈,MAN WO GARDEN MANSION,萬和花園大廈,5/1/1968 0:00,0,17647.500000000000000,1486.400000000000091,19133.900000000001455,12,56,27550,0.5,1,0,0,1,0,841586,819324,觀塘區,Kwun Tong,*,
302,8970,680,22.312760000000001,114.228539999999995,萬和花園大廈,MAN WO GARDEN MANSION,萬和花園大廈,5/1/1968 0:00,0,17647.500000000000000,1486.400000000000091,19133.900000000001455,12,56,27550,0.5,1,0,0,1,0,841586,819324,觀塘區,Kwun Tong,*,
303,11151,556,22.316839999999999,114.169610000000006,新興大廈,SUN HING BUILDING,新興大廈,2/1/1966 0:00,0,20128.400000000001455,24444.799999999999272,44573.199999999997090,27,59,13050,0.3,1,2,1,0,0,835520,819760,油尖旺區,Yau Tsim Mong,***,
304,9069,419,22.322870000000002,114.160499999999999,中堅樓,CHUNG KIN BUILDING,中堅樓,2/1/1966 0:00,0,14798.000000000000000,1071.000000000000000,15869.000000000000000,15,59,17630,0.6,1,2,0,1,0,834581,820406,油尖旺區,Yau Tsim Mong,***,
305,10786,445,22.279599999999999,114.179630000000003,福基大廈,FOOK GAY MANSION,福基大廈,3/1/1966 0:00,0,2374.199999999999818,535.299999999999955,2909.500000000000000,14,59,18600,0.4,1,0,0,0,0,836552,815635,灣仔區,Wan Chai,*,
306,9268,410,22.314840000000000,114.223370000000003,金橋華廈,CAMBRIDGE BUILDING,金僑華廈,9/1/1966 0:00,0,16345.799999999999272,1131.299999999999955,17477.099999999998545,22,58,15300,0.4,1,2,0,1,0,841058,819550,觀塘區,Kwun Tong,***,
307,9287,646,22.277950000000001,114.174340000000001,濂風大廈,LINFOND MANSION,濂風大廈,10/1/1965 0:00,0,5733.800000000000182,736.600000000000023,6470.399999999999636,16,59,16000,0.1,1,0,0,1,0,836007,815448,灣仔區,Wan Chai,*,
308,10914,667,22.319019999999998,114.177560000000000,德星樓,EDWARD COURT,德星樓,12/1/1965 0:00,0,5219.100000000000364,2025.200000000000045,7244.300000000000182,21,59,52500,1.000000000000000,1,0,0,1,0,836343,820005,九龍城區,Kowloon City,*,
309,9079,804,22.313910000000000,114.227819999999994,永寧樓,WING NING MANSION,永寧樓,12/1/1965 0:00,0,3895.099999999999909,309.500000000000000,4204.600000000000364,13,59,28500,0.6,1,0,0,1,0,841517,819440,觀塘區,Kwun Tong,*,
310,8333,468,22.322320000000001,114.161469999999994,中和樓,CHUNG WO BUILDING,中和樓,1/1/1966 0:00,0,19702.099999999998545,1403.200000000000045,21105.299999999999272,15,59,17630,0.5,1,2,0,1,0,834678,820367,油尖旺區,Yau Tsim Mong,***,
311,10029,668,22.279630000000001,114.179159999999996,保如大廈,PAUL YEE MANSION,保如大廈,3/1/1966 0:00,0,4162.699999999999818,1493.500000000000000,5656.199999999999818,16,59,29000,0.4,1,0,0,1,0,836498,815643,灣仔區,Wan Chai,*,
312,10888,698,22.280169999999998,114.185370000000006,香港大廈,HONG KONG MANSION,香港大廈,3/1/1966 0:00,0,18942.299999999999272,7897.699999999999818,26840.000000000000000,25,59,18800,0.05,1,2,0,1,0,837149,815699,灣仔區,Wan Chai,***,
313,14020,592,22.379030000000000,114.182860000000005,雅園,MANTEX VILLA BLOCK 1,雅苑第１座,9/1/1989 0:00,11,1957.200000000000045,0,1957.200000000000045,2,35,38250,0.8,0,0,0,0,0,836884,826646,沙田區,Sha Tin,*,
314,9033,476,22.243880000000001,114.154660000000007,東南大廈,TUNG NAM BUILDING,東南大廈,12/1/1980 0:00,40,1805.700000000000045,624.200000000000045,2429.900000000000091,13,44,41000,0.05,1,0,0,1,0,833980,811681,南區,Southern,*,
315,12548,518,22.282769999999999,114.192639999999997,僑興大廈,KIU HING MANSION,僑興大廈,1/1/1966 0:00,0,27749.799999999999272,6001.300000000000182,33751.099999999998545,27,59,46250,0.1,1,0,0,1,0,837896,815991,東區,Eastern,*,
316,14261,596,22.332989999999999,114.174440000000004,又一樓 C座,PARC OASIS TOWER 7,又一居第７座,10/1/1992 0:00,0,62732.599999999998545,0,62732.599999999998545,12,32,69160,0.5,1,0,0,0,1,836015,821548,深水埗區,Sham Shui Po,*,
317,12371,970,22.320080000000001,114.178079999999994,僑宏大廈,KIU WANG MANSION BLOCK 1,僑宏大廈第一座,9/1/1966 0:00,0,10442.299999999999272,1025.400000000000091,11467.700000000000728,18,58,52210,0.9,1,0,0,1,0,836393,820123,九龍城區,Kowloon City,*,
318,16336,606,22.318999999999999,114.178280000000001,嘉景樓,CARRIE COURT,嘉景樓,1/1/1966 0:00,0,4726.800000000000182,2088.599999999999909,6815.399999999999636,19,59,52500,1.500000000000000,1,0,0,1,0,836413,819999,九龍城區,Kowloon City,*,
319,5985,401,22.338059999999999,114.157120000000006,發祥大廈,FAT CHEUNG BUILDING,發祥大廈,11/1/1965 0:00,0,1632.900000000000091,423.000000000000000,2055.900000000000091,9,59,19000,0.3,0,0,1,1,0,834235,822111,深水埗區,Sham Shui Po,*,
320,11676,668,22.285460000000000,114.192409999999995,永興新樓,WING HING BUILDING,永興新樓,1/1/1966 0:00,0,2898.800000000000182,634.299999999999955,3533.099999999999909,11,59,19250,0.3,1,0,0,1,0,837869,816282,東區,Eastern,*,
321,10829,482,22.322310000000002,114.160139999999998,中星樓,CHUNG SING BUILDING,中星樓,6/1/1966 0:00,0,8748.200000000000728,601.100000000000023,9349.299999999999272,15,58,19000,0.4,1,1,0,1,0,834548,820370,油尖旺區,Yau Tsim Mong,**,
322,12895,411,22.284960000000002,114.191180000000003,美城大廈,MAYSON GARDEN BUILDING,美城花園大廈,1/1/1973 0:00,0,13331.700000000000728,2913.199999999999818,16244.899999999999636,24,52,23660,0.2,1,0,0,0,0,837743,816232,東區,Eastern,*,
323,9222,540,22.318010000000001,114.166589999999999,源發大廈,YUEN FAT BUILDING,源發大廈,10/1/1965 0:00,0,17417.700000000000728,1051.299999999999955,18469.000000000000000,23,59,14000,0.3,1,2,0,1,0,835197,819887,油尖旺區,Yau Tsim Mong,***,
324,8441,462,22.289120000000000,114.193989999999999,利都樓,RIALTO MANSION,利都樓,4/1/1966 0:00,0,10400.000000000000000,2724.699999999999818,13124.700000000000728,18,58,29000,0.05,1,0,0,1,0,838028,816682,東區,Eastern,*,
325,11672,574,22.278549999999999,114.177379999999999,駱克道292-294號,NO SPECIFIC NAME,沒有名稱,6/1/1966 0:00,0,1330.700000000000045,300.399999999999977,1631.099999999999909,13,58,27950,0.4,1,0,0,1,0,836318,815525,灣仔區,Wan Chai,*,
326,12632,790,22.319830000000000,114.176779999999994,萬基大廈,MAN KEE MANSION BLOCK A-D,萬基大廈Ａ－Ｄ座,5/1/1966 0:00,0,13400.299999999999272,12040.399999999999636,25440.700000000000728,26,58,52210,0.8,0,0,0,1,0,836258,820093,九龍城區,Kowloon City,*,
327,9969,652,22.281400000000001,114.126670000000004,先施西環大廈,SINCERE WESTERN HOUSE,先施西環大樓,2/1/1966 0:00,0,12870.200000000000728,1292.500000000000000,14162.700000000000728,12,59,20000,0.1,1,1,0,1,0,831065,815835,中西區,Central and Western,**,
328,12121,462,22.289120000000000,114.193989999999999,利都樓,RIALTO MANSION,利都樓,4/1/1966 0:00,0,10400.000000000000000,2724.699999999999818,13124.700000000000728,18,58,29000,0.05,1,0,0,1,0,838028,816682,東區,Eastern,*,
329,11014,493,22.276700000000002,114.171319999999994,修頓大廈,SOUTHORN MANSION,修頓大廈,10/1/1965 0:00,0,4326.899999999999636,1113.900000000000091,5440.800000000000182,15,59,20800,0.2,1,0,0,0,0,835687,815311,灣仔區,Wan Chai,*,
330,12682,425,22.289120000000000,114.193989999999999,利都樓,RIALTO MANSION,利都樓,4/1/1966 0:00,0,10400.000000000000000,2724.699999999999818,13124.700000000000728,18,58,29000,0.05,1,0,0,1,0,838028,816682,東區,Eastern,*,
331,12279,544,22.282769999999999,114.192639999999997,僑興大廈,KIU HING MANSION,僑興大廈,1/1/1966 0:00,0,27749.799999999999272,6001.300000000000182,33751.099999999998545,27,59,46250,0.1,1,0,0,1,0,837896,815991,東區,Eastern,*,
332,8750,400,22.322320000000001,114.161469999999994,中和樓,CHUNG WO BUILDING,中和樓,1/1/1966 0:00,0,19702.099999999998545,1403.200000000000045,21105.299999999999272,15,59,17630,0.5,1,2,0,1,0,834678,820367,油尖旺區,Yau Tsim Mong,***,
333,8658,462,22.333369999999999,114.160619999999994,常榮大樓,SHEUNG WING BUILDING,常榮大樓,6/1/1966 0:00,0,3855.300000000000182,866.299999999999955,4721.600000000000364,11,58,18560,0.3,1,1,0,1,0,834594,821587,深水埗區,Sham Shui Po,**,
334,7920,625,22.332220000000000,114.162679999999995,常福大廈,SHEUNG FOOK BUILDING,常福大廈,6/1/1966 0:00,0,3376.500000000000000,748.399999999999977,4124.899999999999636,11,58,15620,0.05,1,2,0,0,0,834811,821461,深水埗區,Sham Shui Po,***,
335,8998,589,22.286580000000001,114.211010000000002,中興大廈,CHUNG HING MANSION,中興大廈,10/1/1965 0:00,0,18842.500000000000000,1166.400000000000091,20008.900000000001455,25,59,14000,0.2,1,0,0,1,0,839766,816409,東區,Eastern,*,
336,10858,652,22.281400000000001,114.126670000000004,先施西環大廈,SINCERE WESTERN HOUSE,先施西環大樓,2/1/1966 0:00,0,12870.200000000000728,1292.500000000000000,14162.700000000000728,12,59,20000,0.1,1,1,0,1,0,831065,815835,中西區,Central and Western,**,
337,11382,492,22.283230000000000,114.129819999999995,同興樓,TUNG HING MANSION,同興樓,6/1/1966 0:00,0,4458.000000000000000,792.000000000000000,5250.000000000000000,9,58,37190,0.1,1,1,0,1,0,831420,816030,中西區,Central and Western,**,
338,10672,431,22.278960000000001,114.178820000000002,駱克道344-346號,NO SPECIFIC NAME,沒有名稱,11/1/1965 0:00,0,1227.299999999999955,354.199999999999989,1581.500000000000000,13,59,21250,0.4,1,0,0,1,0,836466,815572,灣仔區,Wan Chai,*,
339,9696,495,22.290250000000000,114.197000000000003,青雲大廈,TSING WAN BUILDING,青雲大廈,4/1/1966 0:00,0,4268.600000000000364,719.299999999999955,4987.899999999999636,23,58,26780,0.4,1,0,0,1,0,838337,816823,東區,Eastern,*,
340,11074,540,22.282769999999999,114.192639999999997,僑興大廈,KIU HING MANSION,僑興大廈,1/1/1966 0:00,0,27749.799999999999272,6001.300000000000182,33751.099999999998545,27,59,46250,0.1,1,0,0,1,0,837896,815991,東區,Eastern,*,
341,8688,587,22.368510000000001,114.122739999999993,宏華大廈,WANG WAH BUILDING,宏華大廈,9/1/1965 0:00,0,9942.500000000000000,1474.400000000000091,11416.899999999999636,16,59,14000,0.6,1,2,0,0,0,830686,825473,葵青區,Kwai Tsing,***,
342,14126,664,22.318999999999999,114.178280000000001,嘉景樓,CARRIE COURT,嘉景樓,1/1/1966 0:00,0,4726.800000000000182,2088.599999999999909,6815.399999999999636,19,59,52500,1.500000000000000,1,0,0,1,0,836413,819999,九龍城區,Kowloon City,*,
343,9523,462,22.289120000000000,114.193989999999999,利都樓,RIALTO MANSION,利都樓,4/1/1966 0:00,0,10400.000000000000000,2724.699999999999818,13124.700000000000728,18,58,29000,0.05,1,0,0,1,0,838028,816682,東區,Eastern,*,
344,10331,513,22.287949999999999,114.146100000000004,嘉裕樓,KA YUE BUILDING,嘉裕樓,6/1/1966 0:00,0,1879.500000000000000,633.000000000000000,2512.500000000000000,12,58,25000,0.2,1,0,0,1,0,833094,816553,中西區,Central and Western,*,
345,15590,635,22.319230000000001,114.177369999999996,德信園,WATERLOO HEIGHTS GARDEN,德信園,12/1/1965 0:00,0,5058.800000000000182,2745.800000000000182,7804.600000000000364,21,59,52500,1.000000000000000,1,0,0,1,0,836318,820024,九龍城區,Kowloon City,*,
346,12742,926,22.325900000000001,114.176050000000004,東方花園 D座,ORIENTAL GARDENS BLOCK D,東方花園Ｄ座,2/1/1967 0:00,0,20026.299999999999272,7213.300000000000182,27239.599999999998545,13,58,49900,0.8,1,0,0,1,0,836180,820754,九龍城區,Kowloon City,*,
347,10442,429,22.316099999999999,114.225909999999999,仁富大廈,YEN FU MANSION,仁富大廈,6/1/1967 0:00,0,9146.000000000000000,996.500000000000000,10142.500000000000000,23,57,16330,0.5,1,1,0,1,0,841317,819687,觀塘區,Kwun Tong,**,
348,14074,567,22.273849999999999,114.193079999999995,高寧大廈,GOLD NING MANSION,高寧大廈,3/1/1967 0:00,0,10515.799999999999272,0,10515.799999999999272,22,58,54830,2.000000000000000,1,0,0,0,0,837946,815001,灣仔區,Wan Chai,*,
349,17973,612,22.330359999999999,114.175849999999997,花圃別墅 B座,FA PO VILLA,花圃別墅,12/1/1966 0:00,0,3283.599999999999909,1094.500000000000000,4378.100000000000364,4,58,60900,0.9,0,0,0,1,0,836162,821260,深水埗區,Sham Shui Po,*,
350,8536,410,22.317060000000001,114.226330000000004,合和大廈,HOPEWELL HOUSE,合和大廈,6/1/1967 0:00,0,15087.000000000000000,2428.900000000000091,17515.900000000001455,21,57,20370,0.7,1,2,0,1,0,841359,819776,觀塘區,Kwun Tong,***,
351,12753,443,22.370590000000000,114.116870000000006,泰華大廈,TAI WAH BUILDING,泰華大廈,5/1/1973 0:00,0,10288.000000000000000,1201.700000000000045,11489.700000000000728,21,51,15830,0.4,1,2,1,1,0,830083,825712,荃灣區,Tsuen Wan,***,
352,9619,499,22.280310000000000,114.179779999999994,基華樓,KEI WA BUILDING,基華樓,3/1/1967 0:00,0,1963.400000000000091,330.300000000000011,2293.699999999999818,12,58,30000,0.3,1,0,0,1,0,836567,815719,灣仔區,Wan Chai,*,
353,14991,567,22.274069999999998,114.193140000000000,高景大廈,GOLD KING MANSION,高景大廈,3/1/1967 0:00,0,10515.799999999999272,0,10515.799999999999272,22,58,54830,2.000000000000000,1,0,0,1,0,837952,815024,灣仔區,Wan Chai,*,
354,10586,614,22.288039999999999,114.192959999999999,民眾大廈,UNITED BUILDING,民眾大廈,4/1/1967 0:00,0,12069.600000000000364,2877.500000000000000,14947.100000000000364,23,57,23000,0.05,1,0,0,1,0,837934,816564,東區,Eastern,*,
355,11000,510,22.307110000000002,114.166010000000000,文景樓,MAN KING BUILDING,文景樓,7/1/1967 0:00,0,33293.400000000001455,1856.900000000000091,35150.300000000002910,19,57,19900,0.1,0,1,0,0,0,835144,818690,油尖旺區,Yau Tsim Mong,**,
356,9156,415,22.317060000000001,114.226330000000004,合和大廈,HOPEWELL HOUSE,合和大廈,6/1/1967 0:00,0,15087.000000000000000,2428.900000000000091,17515.900000000001455,21,57,20370,0.7,1,2,0,1,0,841359,819776,觀塘區,Kwun Tong,***,
357,9241,501,22.316099999999999,114.225909999999999,仁富大廈,YEN FU MANSION,仁富大廈,6/1/1967 0:00,0,9146.000000000000000,996.500000000000000,10142.500000000000000,23,57,16330,0.5,1,1,0,1,0,841317,819687,觀塘區,Kwun Tong,**,
358,18918,555,22.273849999999999,114.193079999999995,高寧大廈,GOLD NING MANSION,高寧大廈,3/1/1967 0:00,0,10515.799999999999272,0,10515.799999999999272,22,58,54830,2.000000000000000,1,0,0,0,0,837946,815001,灣仔區,Wan Chai,*,
359,13932,567,22.273849999999999,114.193079999999995,高寧大廈,GOLD NING MANSION,高寧大廈,3/1/1967 0:00,0,10515.799999999999272,0,10515.799999999999272,22,58,54830,2.000000000000000,1,0,0,0,0,837946,815001,灣仔區,Wan Chai,*,
360,10905,917,22.325900000000001,114.176050000000004,東方花園 D座,ORIENTAL GARDENS BLOCK D,東方花園Ｄ座,2/1/1967 0:00,0,20026.299999999999272,7213.300000000000182,27239.599999999998545,13,58,49900,0.8,1,0,0,1,0,836180,820754,九龍城區,Kowloon City,*,
361,14991,567,22.273849999999999,114.193079999999995,高寧大廈,GOLD NING MANSION,高寧大廈,3/1/1967 0:00,0,10515.799999999999272,0,10515.799999999999272,22,58,54830,2.000000000000000,1,0,0,0,0,837946,815001,灣仔區,Wan Chai,*,
362,11195,1054,22.325690000000002,114.176060000000007,東方花園 C座,ORIENTAL GARDENS BLOCK C,東方花園Ｃ座,2/1/1967 0:00,0,20026.299999999999272,7213.300000000000182,27239.599999999998545,13,58,49900,0.8,1,0,0,0,0,836185,820745,九龍城區,Kowloon City,*,
363,14308,629,22.330359999999999,114.175849999999997,花圃別墅 D座,FA PO VILLA,花圃別墅,12/1/1966 0:00,0,3283.599999999999909,1094.500000000000000,4378.100000000000364,4,58,60900,0.9,0,0,0,1,0,836162,821260,深水埗區,Sham Shui Po,*,
364,12289,712,22.318639999999998,114.177300000000002,麗晶樓,CRYSTAL COURT,麗晶閣,7/1/1967 0:00,0,9360.600000000000364,936.100000000000023,10296.700000000000728,21,57,35000,1.000000000000000,1,0,0,1,0,836318,819969,九龍城區,Kowloon City,*,
365,12640,712,22.318639999999998,114.177300000000002,麗晶樓,CRYSTAL COURT,麗晶閣,7/1/1967 0:00,0,9360.600000000000364,936.100000000000023,10296.700000000000728,21,57,35000,1.000000000000000,1,0,0,1,0,836318,819969,九龍城區,Kowloon City,*,
366,18518,567,22.274069999999998,114.193140000000000,高景大廈,GOLD KING MANSION,高景大廈,3/1/1967 0:00,0,10515.799999999999272,0,10515.799999999999272,22,58,54830,2.000000000000000,1,0,0,1,0,837952,815024,灣仔區,Wan Chai,*,
367,12874,567,22.273849999999999,114.193079999999995,高寧大廈,GOLD NING MANSION,高寧大廈,3/1/1967 0:00,0,10515.799999999999272,0,10515.799999999999272,22,58,54830,2.000000000000000,1,0,0,0,0,837946,815001,灣仔區,Wan Chai,*,
368,12955,795,22.269030000000001,114.184100000000001,意廬小築,IGLOO APARTMENT,意廬小築,4/1/1967 0:00,0,1788.000000000000000,195.000000000000000,1983.000000000000000,11,57,34160,1.500000000000000,1,0,0,1,0,837008,814464,灣仔區,Wan Chai,*,
369,15099,555,22.273849999999999,114.193079999999995,高寧大廈,GOLD NING MANSION,高寧大廈,3/1/1967 0:00,0,10515.799999999999272,0,10515.799999999999272,22,58,54830,2.000000000000000,1,0,0,0,0,837946,815001,灣仔區,Wan Chai,*,
370,10611,801,22.288039999999999,114.192959999999999,民眾大廈,UNITED BUILDING,民眾大廈,4/1/1967 0:00,0,12069.600000000000364,2877.500000000000000,14947.100000000000364,23,57,23000,0.05,1,0,0,1,0,837934,816564,東區,Eastern,*,
371,21164,567,22.273849999999999,114.193079999999995,高寧大廈,GOLD NING MANSION,高寧大廈,3/1/1967 0:00,0,10515.799999999999272,0,10515.799999999999272,22,58,54830,2.000000000000000,1,0,0,0,0,837946,815001,灣仔區,Wan Chai,*,
372,18518,567,22.273849999999999,114.193079999999995,高寧大廈,GOLD NING MANSION,高寧大廈,3/1/1967 0:00,0,10515.799999999999272,0,10515.799999999999272,22,58,54830,2.000000000000000,1,0,0,0,0,837946,815001,灣仔區,Wan Chai,*,
373,6003,533,22.444279999999999,114.026430000000005,同福大樓,TUNG FOOK BUILDING,同福大樓,2/1/1967 0:00,0,2411.900000000000091,1379.700000000000045,3791.599999999999909,7,58,13050,0.05,0,1,0,0,0,820782,833885,元朗區,Yuen Long,**,
374,12640,712,22.318639999999998,114.177300000000002,麗晶樓,CRYSTAL COURT,麗晶閣,7/1/1967 0:00,0,9360.600000000000364,936.100000000000023,10296.700000000000728,21,57,35000,1.000000000000000,1,0,0,1,0,836318,819969,九龍城區,Kowloon City,*,
375,9728,553,22.321429999999999,114.168660000000003,振宜大廈,CHUN YEE BUILDING,振宜大廈,11/1/1966 0:00,0,4060.000000000000000,2098.000000000000000,6158.000000000000000,18,58,16490,0.05,1,1,1,1,0,835422,820269,油尖旺區,Yau Tsim Mong,**,
376,7392,579,22.333100000000002,114.162509999999997,兩洲大廈,LEUNG CHAU BUILDING,兩洲大廈,12/1/1966 0:00,0,4336.899999999999636,368.600000000000023,4705.500000000000000,12,58,17550,0.2,1,1,0,1,0,834787,821558,深水埗區,Sham Shui Po,**,
377,9638,415,22.277729999999998,114.229699999999994,金威樓,KAM WAI BUILDING,金威樓,9/1/1966 0:00,0,3333.300000000000182,872.700000000000045,4206.000000000000000,17,58,32100,0.1,1,0,0,1,0,841712,815437,東區,Eastern,*,
378,9575,400,22.279460000000000,114.226070000000007,都城大樓,METRO MANSION,都城大樓,4/1/1967 0:00,10,5895.800000000000182,448.000000000000000,6343.800000000000182,15,57,23780,0.3,1,0,0,1,0,841331,815623,東區,Eastern,*,
379,14747,712,22.318639999999998,114.177300000000002,麗晶樓,CRYSTAL COURT,麗晶閣,7/1/1967 0:00,0,9360.600000000000364,936.100000000000023,10296.700000000000728,21,57,35000,1.000000000000000,1,0,0,1,0,836318,819969,九龍城區,Kowloon City,*,
380,11585,801,22.288039999999999,114.192959999999999,民眾大廈,UNITED BUILDING,民眾大廈,4/1/1967 0:00,0,12069.600000000000364,2877.500000000000000,14947.100000000000364,23,57,23000,0.05,1,0,0,1,0,837934,816564,東區,Eastern,*,
381,12903,465,22.277410000000000,114.170519999999996,新基大樓,SUN KAI MANSION,新基大樓,11/1/1966 0:00,0,4335.600000000000364,2088.500000000000000,6424.100000000000364,18,58,20800,0.3,1,1,0,1,0,835615,815392,灣仔區,Wan Chai,**,
382,16000,400,22.275849999999998,114.168279999999996,恆德大廈,HANG TAK BUILDING,恆德大廈,9/1/1966 0:00,0,3495.300000000000182,2050.300000000000182,5545.600000000000364,14,58,38000,0.5,1,0,0,1,0,835378,815223,灣仔區,Wan Chai,*,
383,15047,630,22.279610000000002,114.188710000000000,灣景樓 B座,BAY VIEW MANSION,灣景樓,12/1/1966 0:00,0,33003.000000000000000,7492.500000000000000,40495.500000000000000,24,58,45000,0.5,1,0,0,1,0,837490,815635,灣仔區,Wan Chai,*,
384,20811,567,22.274069999999998,114.193140000000000,高景大廈,GOLD KING MANSION,高景大廈,3/1/1967 0:00,0,10515.799999999999272,0,10515.799999999999272,22,58,54830,2.000000000000000,1,0,0,1,0,837952,815024,灣仔區,Wan Chai,*,
385,9363,534,22.277539999999998,114.179770000000005,摩理臣山道8-10號,NO SPECIFIC NAME,沒有名稱,9/1/1966 0:00,0,1995.700000000000045,361.899999999999977,2357.599999999999909,14,58,42650,0.5,0,0,0,1,0,836570,815413,灣仔區,Wan Chai,*,
386,14044,712,22.318639999999998,114.177300000000002,麗晶樓,CRYSTAL COURT,麗晶閣,7/1/1967 0:00,0,9360.600000000000364,936.100000000000023,10296.700000000000728,21,57,35000,1.000000000000000,1,0,0,1,0,836318,819969,九龍城區,Kowloon City,*,
387,11719,698,22.318639999999998,114.177300000000002,麗晶樓,CRYSTAL COURT,麗晶閣,7/1/1967 0:00,0,9360.600000000000364,936.100000000000023,10296.700000000000728,21,57,35000,1.000000000000000,1,0,0,1,0,836318,819969,九龍城區,Kowloon City,*,
388,9647,765,22.321429999999999,114.168660000000003,振宜大廈,CHUN YEE BUILDING,振宜大廈,11/1/1966 0:00,0,4060.000000000000000,2098.000000000000000,6158.000000000000000,18,58,16490,0.05,1,1,1,1,0,835422,820269,油尖旺區,Yau Tsim Mong,**,
389,18130,567,22.273849999999999,114.193079999999995,高寧大廈,GOLD NING MANSION,高寧大廈,3/1/1967 0:00,0,10515.799999999999272,0,10515.799999999999272,22,58,54830,2.000000000000000,1,0,0,0,0,837946,815001,灣仔區,Wan Chai,*,
390,9647,765,22.321429999999999,114.168660000000003,振宜大廈,CHUN YEE BUILDING,振宜大廈,11/1/1966 0:00,0,4060.000000000000000,2098.000000000000000,6158.000000000000000,18,58,16490,0.05,1,1,1,1,0,835422,820269,油尖旺區,Yau Tsim Mong,**,
391,11524,538,22.287849999999999,114.139520000000005,天興大廈,TIN HING BUILDING,天興大廈,12/1/1966 0:00,0,5423.500000000000000,953.000000000000000,6376.500000000000000,13,58,22780,0.3,1,0,0,1,0,832421,816543,中西區,Central and Western,*,
392,12305,772,22.279060000000001,114.188159999999996,國泰大廈,CATHAY MANSION,國泰大廈,12/1/1966 0:00,0,10824.000000000000000,1745.000000000000000,12569.000000000000000,14,58,34600,0.4,1,1,0,0,0,837417,815587,灣仔區,Wan Chai,**,
393,11009,436,22.307359999999999,114.171710000000004,善美大廈,EXCELSIOR BUILDING,善美大廈,5/1/1967 0:00,0,2848.699999999999818,909.000000000000000,3757.699999999999818,14,57,17800,0.2,1,0,1,1,0,835734,818709,油尖旺區,Yau Tsim Mong,*,
394,16011,687,22.330359999999999,114.175849999999997,花圃別墅 A座,FA PO VILLA,花圃別墅,12/1/1966 0:00,0,3283.599999999999909,1094.500000000000000,4378.100000000000364,4,58,60900,0.9,0,0,0,1,0,836162,821260,深水埗區,Sham Shui Po,*,
395,10632,553,22.321429999999999,114.168660000000003,振宜大廈,CHUN YEE BUILDING,振宜大廈,11/1/1966 0:00,0,4060.000000000000000,2098.000000000000000,6158.000000000000000,18,58,16490,0.05,1,1,1,1,0,835422,820269,油尖旺區,Yau Tsim Mong,**,
396,5628,533,22.444279999999999,114.026430000000005,同福大樓,TUNG FOOK BUILDING,同福大樓,2/1/1967 0:00,0,2411.900000000000091,1379.700000000000045,3791.599999999999909,7,58,13050,0.05,0,1,0,0,0,820782,833885,元朗區,Yuen Long,**,
397,10632,553,22.321429999999999,114.168660000000003,振宜大廈,CHUN YEE BUILDING,振宜大廈,11/1/1966 0:00,0,4060.000000000000000,2098.000000000000000,6158.000000000000000,18,58,16490,0.05,1,1,1,1,0,835422,820269,油尖旺區,Yau Tsim Mong,**,
398,15817,746,22.362100000000002,114.045090000000002,龍騰閣,LUNG TANG COURT BLOCK A,龍騰閣Ａ座,9/1/1981 0:00,48,9422.899999999999636,0,9422.899999999999636,13,43,40750,0,1,0,0,1,0,822690,824777,荃灣區,Tsuen Wan,*,
399,16717,658,22.330359999999999,114.175849999999997,花圃別墅 A座,FA PO VILLA,花圃別墅,12/1/1966 0:00,0,3283.599999999999909,1094.500000000000000,4378.100000000000364,4,58,60900,0.9,0,0,0,1,0,836162,821260,深水埗區,Sham Shui Po,*,
400,13138,548,22.290379999999999,114.194869999999995,聯和大廈,LUEN WO APARTMENTS,聯和大廈,2/1/1962 0:00,0,9207.799999999999272,706.700000000000045,9914.500000000000000,13,63,18420,0.2,1,1,0,1,0,838123,816831,東區,Eastern,**,
401,13180,698,22.318639999999998,114.177300000000002,麗晶樓,CRYSTAL COURT,麗晶閣,7/1/1967 0:00,0,9360.600000000000364,936.100000000000023,10296.700000000000728,21,57,35000,1.000000000000000,1,0,0,1,0,836318,819969,九龍城區,Kowloon City,*,
402,10500,560,22.287680000000002,114.144729999999996,德仁大廈,TAK YAN BUILDING,德仁大廈,8/1/1966 0:00,0,1396.200000000000045,988.500000000000000,2384.699999999999818,14,58,26630,0.05,1,0,0,1,0,832956,816537,中西區,Central and Western,*,
403,9650,487,22.336310000000001,114.194929999999999,新蒲崗大廈,SAN PO KONG MANSION,新蒲崗大廈,10/1/1967 0:00,0,26878.000000000000000,11295.899999999999636,38173.900000000001455,20,57,16500,0.7,1,2,0,1,0,838128,821917,黃大仙區,Wong Tai Sin,***,
404,13682,497,22.277460000000001,114.173940000000002,聯星大廈,LUEN SEN MANSION,聯星大廈,11/1/1967 0:00,0,1791.000000000000000,662.600000000000023,2453.599999999999909,16,57,18000,0.05,1,0,0,1,0,835964,815397,灣仔區,Wan Chai,*,
405,10246,487,22.336310000000001,114.194929999999999,新蒲崗大廈,SAN PO KONG MANSION,新蒲崗大廈,10/1/1967 0:00,0,26878.000000000000000,11295.899999999999636,38173.900000000001455,20,57,16500,0.7,1,2,0,1,0,838128,821917,黃大仙區,Wong Tai Sin,***,
406,8294,516,22.336310000000001,114.194929999999999,新蒲崗大廈,SAN PO KONG MANSION,新蒲崗大廈,10/1/1967 0:00,0,26878.000000000000000,11295.899999999999636,38173.900000000001455,20,57,16500,0.7,1,2,0,1,0,838128,821917,黃大仙區,Wong Tai Sin,***,
407,8977,479,22.317769999999999,114.216279999999998,仁業樓,TING YIP MANSION,定業樓,5/1/1972 0:00,0,464.000000000000000,275.600000000000023,739.600000000000023,6,52,21250,0.3,0,0,0,0,0,840327,819865,觀塘區,Kwun Tong,*,
408,9229,519,22.336310000000001,114.194929999999999,新蒲崗大廈,SAN PO KONG MANSION,新蒲崗大廈,10/1/1967 0:00,0,26878.000000000000000,11295.899999999999636,38173.900000000001455,20,57,16500,0.7,1,2,0,1,0,838128,821917,黃大仙區,Wong Tai Sin,***,
409,8755,434,22.334180000000000,114.162099999999995,青山道62號,NO SPECIFIC NAME,沒有名稱,7/1/1968 0:00,0,2475.500000000000000,1336.900000000000091,3812.400000000000091,11,56,19000,0.4,1,0,0,1,0,834746,821680,深水埗區,Sham Shui Po,*,
410,9397,415,22.281549999999999,114.127409999999998,聯安新樓,LUEN ON APARTMENTS,聯安新樓,9/1/1969 0:00,0,6564.100000000000364,664.399999999999977,7228.500000000000000,18,55,25800,0.05,1,0,0,1,0,831169,815857,中西區,Central and Western,*,
411,8481,507,22.336310000000001,114.194929999999999,新蒲崗大廈,SAN PO KONG MANSION,新蒲崗大廈,10/1/1967 0:00,0,26878.000000000000000,11295.899999999999636,38173.900000000001455,20,57,16500,0.7,1,2,0,1,0,838128,821917,黃大仙區,Wong Tai Sin,***,
412,9839,996,22.277570000000001,114.174959999999999,玉滿樓,JADE HOUSE,玉滿樓,1/1/1968 0:00,0,3198.000000000000000,919.500000000000000,4117.500000000000000,16,57,19500,0.2,1,0,0,1,0,836069,815418,灣仔區,Wan Chai,*,
413,13682,497,22.277460000000001,114.173940000000002,聯星大廈,LUEN SEN MANSION,聯星大廈,11/1/1967 0:00,0,1791.000000000000000,662.600000000000023,2453.599999999999909,16,57,18000,0.05,1,0,0,1,0,835964,815397,灣仔區,Wan Chai,*,
414,8875,507,22.336310000000001,114.194929999999999,新蒲崗大廈,SAN PO KONG MANSION,新蒲崗大廈,10/1/1967 0:00,0,26878.000000000000000,11295.899999999999636,38173.900000000001455,20,57,16500,0.7,1,2,0,1,0,838128,821917,黃大仙區,Wong Tai Sin,***,
415,13863,541,22.278729999999999,114.174840000000003,菲林明大廈,FLEMING BUILDING,菲林明大廈,6/1/1968 0:00,0,3627.500000000000000,490.899999999999977,4118.399999999999636,15,56,18380,0.2,1,0,0,0,0,836050,815544,灣仔區,Wan Chai,*,
416,10000,710,22.276520000000001,114.174279999999996,中南樓,CHUNG NAM MANSION,中南樓,9/1/1967 0:00,0,3831.599999999999909,1293.299999999999955,5124.899999999999636,16,57,23250,0.05,1,0,0,1,0,835990,815300,灣仔區,Wan Chai,*,
417,13975,415,22.281549999999999,114.127409999999998,聯安新樓,LUEN ON APARTMENTS,聯安新樓,9/1/1969 0:00,0,6564.100000000000364,664.399999999999977,7228.500000000000000,18,55,25800,0.05,1,0,0,1,0,831169,815857,中西區,Central and Western,*,
418,10367,463,22.318840000000002,114.167850000000001,新亞大樓,NEW ASIA BUILDING,新亞大樓,2/1/1968 0:00,0,2338.099999999999909,296.300000000000011,2634.400000000000091,14,57,13000,0.05,1,0,1,1,0,835339,819981,油尖旺區,Yau Tsim Mong,*,
419,13598,478,22.280660000000001,114.182550000000006,寶漢大廈,PO HON BUILDING,寶漢大廈,11/1/1967 0:00,0,3375.099999999999909,1996.599999999999909,5371.699999999999818,15,57,18800,0.05,1,0,0,1,0,836853,815760,灣仔區,Wan Chai,*,
420,10567,511,22.286140000000000,114.133939999999996,百好大樓,PAK HOO MANSION,百好大樓,7/1/1968 0:00,0,4577.600000000000364,2737.300000000000182,7314.899999999999636,13,56,28300,0.1,1,0,0,1,0,831843,816377,中西區,Central and Western,*,
421,13143,913,22.336099999999998,114.137330000000006,美孚新邨 1期 百老匯街6-8號,NO SPECIFIC NAME,沒有名稱,12/1/1968 0:00,0,12393.100000000000364,694.399999999999977,13087.500000000000000,21,56,45000,0.3,1,0,0,0,1,832190,821892,深水埗區,Sham Shui Po,*,
422,10599,868,22.336279999999999,114.137850000000000,美孚新邨 1期 百老匯街10-12號,MEI FOO SUN CHUEN STAGE I,美孚新邨第一期,7/1/1969 0:00,0,24163.700000000000728,0,24163.700000000000728,21,55,45000,0.3,1,0,0,0,1,832243,821917,深水埗區,Sham Shui Po,*,
423,9964,853,22.336079999999999,114.138149999999996,美孚新邨 1期 百老匯街18-20號,MEI FOO SUN CHUEN STAGE I,美孚新邨第一期,6/1/1969 0:00,0,13852.799999999999272,0,13852.799999999999272,21,55,45000,0.3,1,0,0,0,1,832281,821889,深水埗區,Sham Shui Po,*,
424,11019,579,22.336950000000002,114.138589999999994,美孚新邨 1期 百老匯街23號,MEI FOO SUN CHUEN STAGE I,美孚新邨第一期,3/1/1969 0:00,0,11691.100000000000364,0,11691.100000000000364,19,56,45000,0.3,1,0,0,0,1,832323,821982,深水埗區,Sham Shui Po,*,
425,9001,1022,22.336099999999998,114.137330000000006,美孚新邨 1期 百老匯街6-8號,NO SPECIFIC NAME,沒有名稱,12/1/1968 0:00,0,12393.100000000000364,694.399999999999977,13087.500000000000000,21,56,45000,0.3,1,0,0,0,1,832190,821892,深水埗區,Sham Shui Po,*,
426,8762,913,22.336400000000001,114.137410000000003,美孚新邨 1期 百老匯街2-4號,NO SPECIFIC NAME,沒有名稱,10/1/1968 0:00,0,13916.799999999999272,0,13916.799999999999272,21,56,45000,0.2,1,0,0,0,1,832205,821927,深水埗區,Sham Shui Po,*,
427,10021,918,22.336079999999999,114.138149999999996,美孚新邨 1期 百老匯街18-20號,MEI FOO SUN CHUEN STAGE I,美孚新邨第一期,6/1/1969 0:00,0,13852.799999999999272,0,13852.799999999999272,21,55,45000,0.3,1,0,0,0,1,832281,821889,深水埗區,Sham Shui Po,*,
428,13000,600,22.282650000000000,114.149439999999998,堅威大廈,CAINEWAY MANSION,堅威大廈,9/1/1969 0:00,0,7613.000000000000000,3255.699999999999818,10868.700000000000728,29,55,55000,0.7,1,0,0,1,0,833446,815980,中西區,Central and Western,*,
429,10097,515,22.313369999999999,114.170829999999995,永僑大廈,WING KIU BUILDING,永僑大廈,2/1/1969 0:00,0,2959.099999999999909,2173.500000000000000,5132.600000000000364,17,56,12490,0.05,1,0,0,1,0,835648,819370,油尖旺區,Yau Tsim Mong,*,
430,11589,516,22.277729999999998,114.172280000000001,協生大廈,HIP SANG BUILDING,協生大廈,7/1/1969 0:00,0,5552.899999999999636,1431.500000000000000,6984.399999999999636,17,55,16000,0.05,1,0,0,1,0,835798,815433,灣仔區,Wan Chai,*,
431,10653,704,22.336079999999999,114.138149999999996,美孚新邨 1期 百老匯街18-20號,MEI FOO SUN CHUEN STAGE I,美孚新邨第一期,6/1/1969 0:00,0,13852.799999999999272,0,13852.799999999999272,21,55,45000,0.3,1,0,0,0,1,832281,821889,深水埗區,Sham Shui Po,*,
432,9302,946,22.336020000000001,114.137720000000002,美孚新邨 1期 百老匯街14-16號,MEI FOO SUN CHUEN STAGE I,美孚新邨第一期,7/1/1969 0:00,0,24163.700000000000728,0,24163.700000000000728,21,55,45000,0.3,1,0,0,0,1,832230,821886,深水埗區,Sham Shui Po,*,
433,8344,719,22.336990000000000,114.137690000000006,美孚新邨 1期 百老匯街5-7號,NO SPECIFIC NAME,沒有名稱,10/1/1968 0:00,0,25411.099999999998545,0,25411.099999999998545,20,56,45000,0.05,1,0,0,0,1,832232,821992,深水埗區,Sham Shui Po,*,
434,13301,827,22.336760000000002,114.137609999999995,美孚新邨 1期 百老匯街1-3號,NO SPECIFIC NAME,沒有名稱,10/1/1968 0:00,0,25411.099999999998545,0,25411.099999999998545,20,56,45000,0.2,1,0,0,0,1,832222,821968,深水埗區,Sham Shui Po,*,
435,13230,907,22.336279999999999,114.137850000000000,美孚新邨 1期 百老匯街10-12號,MEI FOO SUN CHUEN STAGE I,美孚新邨第一期,7/1/1969 0:00,0,24163.700000000000728,0,24163.700000000000728,21,55,45000,0.3,1,0,0,0,1,832243,821917,深水埗區,Sham Shui Po,*,
436,10780,974,22.336020000000001,114.137720000000002,美孚新邨 1期 百老匯街14-16號,MEI FOO SUN CHUEN STAGE I,美孚新邨第一期,7/1/1969 0:00,0,24163.700000000000728,0,24163.700000000000728,21,55,45000,0.3,1,0,0,0,1,832230,821886,深水埗區,Sham Shui Po,*,
437,16666,600,22.282650000000000,114.149439999999998,堅威大廈,CAINEWAY MANSION,堅威大廈,9/1/1969 0:00,0,7613.000000000000000,3255.699999999999818,10868.700000000000728,29,55,55000,0.7,1,0,0,1,0,833446,815980,中西區,Central and Western,*,
438,13669,695,22.282650000000000,114.149439999999998,堅威大廈,CAINEWAY MANSION,堅威大廈,9/1/1969 0:00,0,7613.000000000000000,3255.699999999999818,10868.700000000000728,29,55,55000,0.7,1,0,0,1,0,833446,815980,中西區,Central and Western,*,
439,10969,629,22.337190000000000,114.137810000000002,美孚新邨 1期 百老匯街9-11號,MEI FOO SUN CHUEN STAGE I,美孚新邨第一期,10/1/1968 0:00,0,25411.099999999998545,0,25411.099999999998545,20,56,45000,0.05,1,0,0,0,1,832254,822010,深水埗區,Sham Shui Po,*,
440,10303,856,22.336400000000001,114.137410000000003,美孚新邨 1期 百老匯街2-4號,NO SPECIFIC NAME,沒有名稱,10/1/1968 0:00,0,13916.799999999999272,0,13916.799999999999272,21,56,45000,0.2,1,0,0,0,1,832205,821927,深水埗區,Sham Shui Po,*,
441,10103,485,22.337080000000000,114.138069999999999,美孚新邨 1期 百老匯街15-17號,MEI FOO SUN CHUEN STAGE I,美孚新邨第一期,12/1/1968 0:00,0,8644.000000000000000,0,8644.000000000000000,20,56,45000,0.05,1,0,0,0,1,832271,822001,深水埗區,Sham Shui Po,*,
442,14510,827,22.336659999999998,114.138459999999995,美孚新邨 1期 百老匯街25-27號,MEI FOO SUN CHUEN STAGE I,美孚新邨第一期,4/1/1969 0:00,0,9998.200000000000728,0,9998.200000000000728,20,55,45000,0.3,1,0,0,0,1,832309,821953,深水埗區,Sham Shui Po,*,
443,10640,827,22.336760000000002,114.137609999999995,美孚新邨 1期 百老匯街1-3號,NO SPECIFIC NAME,沒有名稱,10/1/1968 0:00,0,25411.099999999998545,0,25411.099999999998545,20,56,45000,0.2,1,0,0,0,1,832222,821968,深水埗區,Sham Shui Po,*,
444,10984,701,22.336980000000001,114.138289999999998,美孚新邨 1期 百老匯街19-21號,MEI FOO SUN CHUEN STAGE I,美孚新邨第一期,12/1/1968 0:00,0,8997.899999999999636,0,8997.899999999999636,19,56,45000,0.2,1,0,0,0,1,832291,821990,深水埗區,Sham Shui Po,*,
445,10798,639,22.336980000000001,114.138289999999998,美孚新邨 1期 百老匯街19-21號,MEI FOO SUN CHUEN STAGE I,美孚新邨第一期,12/1/1968 0:00,0,8997.899999999999636,0,8997.899999999999636,19,56,45000,0.2,1,0,0,0,1,832291,821990,深水埗區,Sham Shui Po,*,
446,11864,885,22.336400000000001,114.137410000000003,美孚新邨 1期 百老匯街2-4號,NO SPECIFIC NAME,沒有名稱,10/1/1968 0:00,0,13916.799999999999272,0,13916.799999999999272,21,56,45000,0.2,1,0,0,0,1,832205,821927,深水埗區,Sham Shui Po,*,
447,12173,460,22.336950000000002,114.138589999999994,美孚新邨 1期 百老匯街23號,MEI FOO SUN CHUEN STAGE I,美孚新邨第一期,3/1/1969 0:00,0,11691.100000000000364,0,11691.100000000000364,19,56,45000,0.3,1,0,0,0,1,832323,821982,深水埗區,Sham Shui Po,*,
448,10826,859,22.336400000000001,114.137410000000003,美孚新邨 1期 百老匯街2-4號,NO SPECIFIC NAME,沒有名稱,10/1/1968 0:00,0,13916.799999999999272,0,13916.799999999999272,21,56,45000,0.2,1,0,0,0,1,832205,821927,深水埗區,Sham Shui Po,*,
449,9656,787,22.336099999999998,114.137330000000006,美孚新邨 1期 百老匯街6-8號,NO SPECIFIC NAME,沒有名稱,12/1/1968 0:00,0,12393.100000000000364,694.399999999999977,13087.500000000000000,21,56,45000,0.3,1,0,0,0,1,832190,821892,深水埗區,Sham Shui Po,*,
450,10033,885,22.336400000000001,114.137410000000003,美孚新邨 1期 百老匯街2-4號,NO SPECIFIC NAME,沒有名稱,10/1/1968 0:00,0,13916.799999999999272,0,13916.799999999999272,21,56,45000,0.2,1,0,0,0,1,832205,821927,深水埗區,Sham Shui Po,*,
